{
  "CSTM": {
    "name": "CHHATRAPATI Shivaji Terminus",
    "division": "Mumbai",
    "state": "Maharastra",
    "latitude": 18.9398,
    "longitude": 72.8355
  },
  "KYN": {
    "name": "Kalyan",
    "division": "Mumbai",
    "state": "Maharastra",
    "latitude": 19.2437,
    "longitude": 73.1277
  },
  "PNVL": {
    "name": "Panvel",
    "division": "Mumbai",
    "state": "Maharastra",
    "latitude": 18.9886,
    "longitude": 73.1108
  },
  "NK": {
    "name": "Nasik Road",
    "division": "Bhusawal",
    "state": "Maharastra",
    "latitude": 19.9773,
    "longitude": 73.8009
  },
  "SUR": {
    "name": "Solapur",
    "division": "Solapur",
    "state": "Maharastra",
    "latitude": 17.6599,
    "longitude": 75.9064
  },
  "MMR": {
    "name": "Manmad",
    "division": "Bhusawal",
    "state": "Maharastra",
    "latitude": 20.2539,
    "longitude": 74.437
  },
  "GR": {
    "name": "Gulbarga",
    "division": "Solapur",
    "state": "Maharastra",
    "latitude": 17.3356,
    "longitude": 76.8374
  },
  "AK": {
    "name": "Akola",
    "division": "Bhusawal",
    "state": "Maharastra",
    "latitude": 20.7096,
    "longitude": 76.9981
  },
  "JL": {
    "name": "Jalgaon",
    "division": "Bhusawal",
    "state": "Maharastra",
    "latitude": 21.0077,
    "longitude": 75.5626
  },
  "MRJ": {
    "name": "Miraj",
    "division": "Pune",
    "state": "Maharastra",
    "latitude": 16.8232,
    "longitude": 74.6412
  },
  "SNSI": {
    "name": "Sainagar Sirdi",
    "division": "Solapur",
    "state": "Maharastra",
    "latitude": 19.7666,
    "longitude": 74.477
  },
  "KOP": {
    "name": "Kolhapur",
    "division": "Pune",
    "state": "Maharastra",
    "latitude": 16.709,
    "longitude": 74.2433
  },
  "BD": {
    "name": "Badnera",
    "division": "Bhusawal",
    "state": "Maharastra",
    "latitude": 20.8777,
    "longitude": 77.7567
  },
  "KNW": {
    "name": "Khandawa",
    "division": "Bhusawal",
    "state": "Maharastra",
    "latitude": 21.8304,
    "longitude": 76.3494
  },
  "KPG": {
    "name": "Kopargaon",
    "division": "Solapur",
    "state": "Maharastra",
    "latitude": 19.8883,
    "longitude": 74.4825
  },
  "DD": {
    "name": "Daud",
    "division": "Solapur",
    "state": "Maharastra",
    "latitude": 18.4667,
    "longitude": 74.5695
  },
  "ANG": {
    "name": "Ahmad Nagar",
    "division": "Solapur",
    "state": "Maharastra",
    "latitude": 19.0948,
    "longitude": 74.7384
  },
  "WR": {
    "name": "Wardha",
    "division": "Nagpur",
    "state": "Maharastra",
    "latitude": 20.7432,
    "longitude": 78.597
  },
  "SEG": {
    "name": "Shegaon",
    "division": "Bhusawal",
    "state": "Maharastra",
    "latitude": 20.793,
    "longitude": 76.6997
  },
  "AMI": {
    "name": "Amrawati",
    "division": "Bhusawal",
    "state": "Maharastra",
    "latitude": 20.9374,
    "longitude": 77.7796
  },
  "BPQ": {
    "name": "Balharshah",
    "division": "Nagpur",
    "state": "Maharastra",
    "latitude": 19.841,
    "longitude": 79.3428
  },
  "LNL": {
    "name": "Lonavala",
    "division": "Mumbai",
    "state": "Maharastra",
    "latitude": 18.7481,
    "longitude": 73.4072
  },
  "CD": {
    "name": "Chandrapur",
    "division": "Nagpur",
    "state": "Maharastra",
    "latitude": 19.9615,
    "longitude": 79.2961
  },
  "LUR": {
    "name": "Latur",
    "division": "Solapur",
    "state": "Maharastra",
    "latitude": 18.3988,
    "longitude": 76.5702
  },
  "BZU": {
    "name": "Betul",
    "division": "Nagpur",
    "state": "Madhya Pradesh",
    "latitude": 21.9026,
    "longitude": 77.9055
  },
  "BAU": {
    "name": "Burhanpur",
    "division": "Bhusawal",
    "state": "Madhya Pradesh",
    "latitude": 21.3088,
    "longitude": 76.2221
  },
  "KWV": {
    "name": "Kurduwadi",
    "division": "Solapur",
    "state": "Maharastra",
    "latitude": 18.083,
    "longitude": 75.43
  },
  "CSN": {
    "name": "Chalisgaon",
    "division": "Bhusawal",
    "state": "Maharastra",
    "latitude": 20.459,
    "longitude": 74.9983
  },
  "MKU": {
    "name": "Malkapur",
    "division": "Bhusawal",
    "state": "Maharastra",
    "latitude": 20.8891,
    "longitude": 76.2014
  },
  "SEGM": {
    "name": "Sewagram",
    "division": "Nagpur",
    "state": "Maharastra",
    "latitude": 20.7516,
    "longitude": 78.6442
  },
  "BIRD": {
    "name": "Bhiwandi Road",
    "division": "Mumbai",
    "state": "Maharastra",
    "latitude": 19.2813,
    "longitude": 73.0483
  },
  "WADI": {
    "name": "Wadi",
    "division": "Solapur",
    "state": "Maharastra",
    "latitude": 17.0592,
    "longitude": 76.99
  },
  "DI": {
    "name": "Dombivli",
    "division": "Mumbai",
    "state": "Maharastra",
    "latitude": 19.2167,
    "longitude": 73.0833
  },
  "BUD": {
    "name": "Badlapur",
    "division": "Mumbai",
    "state": "Maharastra",
    "latitude": 19.166,
    "longitude": 73.2367
  },
  "GC": {
    "name": "Ghatkopar",
    "division": "Mumbai",
    "state": "Maharastra",
    "latitude": 19.0865,
    "longitude": 72.909
  },
  "CLA": {
    "name": "Kurla",
    "division": "Mumbai",
    "state": "Maharastra",
    "latitude": 19.0726,
    "longitude": 72.8856
  },
  "ABH": {
    "name": "Ambarnath",
    "division": "Mumbai",
    "state": "Maharastra",
    "latitude": 19.1844,
    "longitude": 73.227
  },
  "MNKD": {
    "name": "Mankhurd",
    "division": "Mumbai",
    "state": "Maharastra",
    "latitude": 19.0485,
    "longitude": 72.921
  },
  "MLND": {
    "name": "Mulund",
    "division": "Mumbai",
    "state": "Maharastra",
    "latitude": 19.1725,
    "longitude": 72.9608
  },
  "MBQ": {
    "name": "Mumbra",
    "division": "Mumbai",
    "state": "Maharastra",
    "latitude": 19.036,
    "longitude": 73.0158
  },
  "BEPR": {
    "name": "Belapur",
    "division": "Mumbai",
    "state": "Maharastra",
    "latitude": 19.0204,
    "longitude": 73.026
  },
  "TLA": {
    "name": "Titwala",
    "division": "Mumbai",
    "state": "Maharastra",
    "latitude": 19.6608,
    "longitude": 73.1509
  },
  "BND": {
    "name": "Bhandup",
    "division": "Mumbai",
    "state": "Maharastra",
    "latitude": 19.1497,
    "longitude": 72.933
  },
  "NEU": {
    "name": "Nerul",
    "division": "Mumbai",
    "state": "Maharastra",
    "latitude": 19.0335,
    "longitude": 73.0199
  },
  "VSH": {
    "name": "Vashi",
    "division": "Mumbai",
    "state": "Maharastra",
    "latitude": 19.0702,
    "longitude": 73.0007
  },
  "KHAG": {
    "name": "Kharghar",
    "division": "Mumbai",
    "state": "Maharastra",
    "latitude": 19.0444,
    "longitude": 73.0695
  },
  "GV": {
    "name": "Govandi",
    "division": "Mumbai",
    "state": "Maharastra",
    "latitude": 19.0481,
    "longitude": 72.9183
  },
  "ULNR": {
    "name": "Ulhasnagar",
    "division": "Mumbai",
    "state": "Maharastra",
    "latitude": 19.2163,
    "longitude": 73.1644
  },
  "VK": {
    "name": "Vikhroli",
    "division": "Mumbai",
    "state": "Maharastra",
    "latitude": 19.1066,
    "longitude": 72.9311
  },
  "KLVA": {
    "name": "Kalwa",
    "division": "Mumbai",
    "state": "Maharastra",
    "latitude": 19.187,
    "longitude": 72.9991
  },
  "BY": {
    "name": "Byculla",
    "division": "Mumbai",
    "state": "Maharastra",
    "latitude": 18.9802,
    "longitude": 72.8323
  },
  "SIN": {
    "name": "Sion",
    "division": "Mumbai",
    "state": "Maharastra",
    "latitude": 19.0396,
    "longitude": 72.8665
  },
  "AIRL": {
    "name": "Airoli",
    "division": "Mumbai",
    "state": "Maharastra",
    "latitude": 19.1571,
    "longitude": 72.9964
  },
  "KJT": {
    "name": "Karjat",
    "division": "Mumbai",
    "state": "Maharastra",
    "latitude": 18.9096,
    "longitude": 73.3235
  },
  "CMBR": {
    "name": "Chembur",
    "division": "Mumbai",
    "state": "Maharastra",
    "latitude": 19.0488,
    "longitude": 72.9101
  },
  "GTBN": {
    "name": "Guru Teg Bahadur Nagar",
    "division": "Mumbai",
    "state": "Maharastra",
    "latitude": 19.0732,
    "longitude": 72.8603
  },
  "GNSL": {
    "name": "Ghansoli",
    "division": "Mumbai",
    "state": "Maharastra",
    "latitude": 19.1234,
    "longitude": 73.0076
  },
  "MANR": {
    "name": "Mansarovar",
    "division": "Mumbai",
    "state": "Maharastra",
    "latitude": 19.0136,
    "longitude": 73.0666
  },
  "SNCR": {
    "name": "Sanpada",
    "division": "Mumbai",
    "state": "Maharastra",
    "latitude": 19.0692,
    "longitude": 73.0166
  },
  "SDAH": {
    "name": "Sealdah",
    "division": "Sealdah",
    "state": "West Bengal",
    "latitude": 22.5675,
    "longitude": 88.37
  },
  "KOAA": {
    "name": "Kolkata Terminal",
    "division": "Sealdah",
    "state": "West Bengal",
    "latitude": 22.5745,
    "longitude": 88.37
  },
  "BGP": {
    "name": "Bhagalpur",
    "division": "Maldah",
    "state": "Bihar",
    "latitude": 25.2437,
    "longitude": 86.9848
  },
  "ASN": {
    "name": "Asansol",
    "division": "Asansol",
    "state": "West Bengal",
    "latitude": 23.6833,
    "longitude": 86.9833
  },
  "BWN": {
    "name": "Barddhman",
    "division": "Howrah",
    "state": "West Bengal",
    "latitude": 23.2324,
    "longitude": 87.8633
  },
  "NH": {
    "name": "Naihati",
    "division": "Sealdah",
    "state": "West Bengal",
    "latitude": 22.8942,
    "longitude": 88.4181
  },
  "MLDT": {
    "name": "Malda Town",
    "division": "Maldah",
    "state": "West Bengal",
    "latitude": 25.011,
    "longitude": 88.141
  },
  "JSME": {
    "name": "Jasidih",
    "division": "Asansol",
    "state": "Jharkhand",
    "latitude": 24.5132,
    "longitude": 86.6456
  },
  "DGR": {
    "name": "Durgapur",
    "division": "Asansol",
    "state": "West Bengal",
    "latitude": 23.5204,
    "longitude": 87.3119
  },
  "JMP": {
    "name": "Jamalpur",
    "division": "Maldah",
    "state": "Bihar",
    "latitude": 25.3132,
    "longitude": 86.489
  },
  "RPH": {
    "name": "Rampurhat",
    "division": "Howrah",
    "state": "West Bengal",
    "latitude": 24.1761,
    "longitude": 87.7918
  },
  "BDC": {
    "name": "Bandel Jn.",
    "division": "Howrah",
    "state": "West Bengal",
    "latitude": 22.9284,
    "longitude": 88.3841
  },
  "NFK": {
    "name": "New Farakka",
    "division": "Maldah",
    "state": "West Bengal",
    "latitude": 25.0362,
    "longitude": 88.2461
  },
  "MDP": {
    "name": "Madhupur",
    "division": "Asansol",
    "state": "Jharkhand",
    "latitude": 24.2672,
    "longitude": 86.6425
  },
  "BHP": {
    "name": "Bolpur",
    "division": "Howrah",
    "state": "West Bengal",
    "latitude": 23.6576,
    "longitude": 87.6961
  },
  "BPC": {
    "name": "Berhampur Court",
    "division": "Sealdah",
    "state": "West Bengal",
    "latitude": 24.0984,
    "longitude": 88.2672
  },
  "SGG": {
    "name": "Sultanganj",
    "division": "Maldah",
    "state": "Bihar",
    "latitude": 25.2631,
    "longitude": 86.7459
  },
  "RNG": {
    "name": "Raniganj",
    "division": "Asansol",
    "state": "West Bengal",
    "latitude": 23.6254,
    "longitude": 87.134
  },
  "UDL": {
    "name": "Andal",
    "division": "Asansol",
    "state": "West Bengal",
    "latitude": 23.6001,
    "longitude": 87.1203
  },
  "KNJ": {
    "name": "Krishnanagar City",
    "division": "Sealdah",
    "state": "West Bengal",
    "latitude": 23.4026,
    "longitude": 88.4993
  },
  "BP": {
    "name": "Barackpur",
    "division": "Sealdah",
    "state": "West Bengal",
    "latitude": 22.7678,
    "longitude": 88.3762
  },
  "SPR": {
    "name": "Srirampur",
    "division": "Howrah",
    "state": "West Bengal",
    "latitude": 22.7528,
    "longitude": 88.3427
  },
  "DDJ": {
    "name": "Dum Dum Jn.",
    "division": "Sealdah",
    "state": "West Bengal",
    "latitude": 22.6295,
    "longitude": 88.4225
  },
  "SEP": {
    "name": "Sodepur",
    "division": "Sealdah",
    "state": "West Bengal",
    "latitude": 22.6953,
    "longitude": 88.4082
  },
  "BRP": {
    "name": "Baruipur Jn.",
    "division": "Sealdah",
    "state": "West Bengal",
    "latitude": 22.366,
    "longitude": 88.4394
  },
  "SRP": {
    "name": "Srirampur",
    "division": "Howrah",
    "state": "West Bengal",
    "latitude": 22.748,
    "longitude": 88.3401
  },
  "RIS": {
    "name": "Rishra",
    "division": "Howrah",
    "state": "West Bengal",
    "latitude": 22.7502,
    "longitude": 88.3451
  },
  "KOG": {
    "name": "Konnagar",
    "division": "Howrah",
    "state": "West Bengal",
    "latitude": 22.7053,
    "longitude": 88.3514
  },
  "BT": {
    "name": "Barasat Jn.",
    "division": "Sealdah",
    "state": "West Bengal",
    "latitude": 22.7228,
    "longitude": 88.4828
  },
  "BLH": {
    "name": "Belghoria",
    "division": "Sealdah",
    "state": "West Bengal",
    "latitude": 22.6516,
    "longitude": 88.3771
  },
  "SBGR": {
    "name": "Subhasgram",
    "division": "Sealdah",
    "state": "West Bengal",
    "latitude": 22.4098,
    "longitude": 88.4356
  },
  "SNR": {
    "name": "Shyamnagar",
    "division": "Sealdah",
    "state": "West Bengal",
    "latitude": 22.8266,
    "longitude": 88.3666
  },
  "BNXR": {
    "name": "Bidhannagar",
    "division": "Sealdah",
    "state": "West Bengal",
    "latitude": 22.5854,
    "longitude": 88.4011
  },
  "HB": {
    "name": "Habra",
    "division": "Sealdah",
    "state": "West Bengal",
    "latitude": 22.8388,
    "longitude": 88.6442
  },
  "MMG": {
    "name": "Madhyamgram",
    "division": "Sealdah",
    "state": "West Bengal",
    "latitude": 22.6953,
    "longitude": 88.448
  },
  "SHE": {
    "name": "Sheoraphuli",
    "division": "Howrah",
    "state": "West Bengal",
    "latitude": 22.7519,
    "longitude": 88.3217
  },
  "RHA": {
    "name": "Ranaghat Jn.",
    "division": "Sealdah",
    "state": "West Bengal",
    "latitude": 23.1736,
    "longitude": 88.5631
  },
  "KDH": {
    "name": "Khardah",
    "division": "Sealdah",
    "state": "West Bengal",
    "latitude": 22.7058,
    "longitude": 88.3794
  },
  "CDH": {
    "name": "Chakdah",
    "division": "Sealdah",
    "state": "West Bengal",
    "latitude": 23.256,
    "longitude": 88.5269
  },
  "PNBE": {
    "name": "Patna",
    "division": "Danapur",
    "state": "Bihar",
    "latitude": 25.6121,
    "longitude": 85.1343
  },
  "MFP": {
    "name": "Muzaffarpur",
    "division": "Sonepur",
    "state": "Bihar",
    "latitude": 26.1209,
    "longitude": 85.3906
  },
  "MGS": {
    "name": "Mughalsarai",
    "division": "Mughalsarai",
    "state": "Uttar Pradesh",
    "latitude": 25.2887,
    "longitude": 83.0094
  },
  "GAYA": {
    "name": "Gaya",
    "division": "Mughalsarai",
    "state": "Bihar",
    "latitude": 24.7914,
    "longitude": 85.0044
  },
  "DHN": {
    "name": "Dhanbad",
    "division": "Dhanbad",
    "state": "Jharkhand",
    "latitude": 23.8016,
    "longitude": 86.4432
  },
  "DBG": {
    "name": "Darbhanga",
    "division": "Samastipur",
    "state": "Bihar",
    "latitude": 26.1521,
    "longitude": 85.8977
  },
  "RJPB": {
    "name": "Rajendra Nagar Terminal",
    "division": "Danapur",
    "state": "Bihar",
    "latitude": 25.6119,
    "longitude": 85.1494
  },
  "PPTA": {
    "name": "Patliputra",
    "division": "Danapur",
    "state": "Bihar",
    "latitude": 25.6121,
    "longitude": 85.1207
  },
  "SPJ": {
    "name": "Samastipur",
    "division": "Samastipur",
    "state": "Bihar",
    "latitude": 25.8605,
    "longitude": 85.782
  },
  "SHC": {
    "name": "Saharsa",
    "division": "Samastipur",
    "state": "Bihar",
    "latitude": 25.8774,
    "longitude": 86.5998
  },
  "ARA": {
    "name": "Ara",
    "division": "Danapur",
    "state": "Bihar",
    "latitude": 25.556,
    "longitude": 84.6635
  },
  "BXR": {
    "name": "Buxar",
    "division": "Danapur",
    "state": "Bihar",
    "latitude": 25.5647,
    "longitude": 83.9784
  },
  "DNR": {
    "name": "Danapur",
    "division": "Danapur",
    "state": "Bihar",
    "latitude": 25.6173,
    "longitude": 85.0497
  },
  "BJU": {
    "name": "Barauni Jn.",
    "division": "Sonepur",
    "state": "Bihar",
    "latitude": 25.4755,
    "longitude": 86.0409
  },
  "HJP": {
    "name": "Hajipur",
    "division": "Sonepur",
    "state": "Bihar",
    "latitude": 25.6857,
    "longitude": 85.2133
  },
  "KQR": {
    "name": "Koderma",
    "division": "Dhanbad",
    "state": "Jharkhand",
    "latitude": 24.4694,
    "longitude": 85.5449
  },
  "BMKI": {
    "name": "Banmankhi",
    "division": "Samastipur",
    "state": "Bihar",
    "latitude": 25.8775,
    "longitude": 87.1343
  },
  "DOS": {
    "name": "Dehri On Sone",
    "division": "Mughalsarai",
    "state": "Bihar",
    "latitude": 24.8977,
    "longitude": 84.1863
  },
  "KIUL": {
    "name": "Kiul",
    "division": "Danapur",
    "state": "Bihar",
    "latitude": 25.1076,
    "longitude": 86.119
  },
  "KGG": {
    "name": "Khagaria",
    "division": "Sonepur",
    "state": "Bihar",
    "latitude": 25.5021,
    "longitude": 86.4764
  },
  "RXL": {
    "name": "Raxaul",
    "division": "Samastipur",
    "state": "Bihar",
    "latitude": 26.9794,
    "longitude": 84.8585
  },
  "SSM": {
    "name": "Sasaram",
    "division": "Mughalsarai",
    "state": "Bihar",
    "latitude": 24.9507,
    "longitude": 84.0191
  },
  "BTH": {
    "name": "Bettiah",
    "division": "Samastipur",
    "state": "Bihar",
    "latitude": 26.8029,
    "longitude": 84.5033
  },
  "JYG": {
    "name": "Jainagar",
    "division": "Samastipur",
    "state": "Bihar",
    "latitude": 26.5851,
    "longitude": 86.1339
  },
  "PNME": {
    "name": "Parasnath",
    "division": "Dhanbad",
    "state": "Jharkhand",
    "latitude": 23.9721,
    "longitude": 86.1466
  },
  "MBI": {
    "name": "Madhubani",
    "division": "Samastipur",
    "state": "Bihar",
    "latitude": 26.3639,
    "longitude": 86.0705
  },
  "DTO": {
    "name": "Daltonganj",
    "division": "Dhanbad",
    "state": "Jharkhand",
    "latitude": 24.0317,
    "longitude": 84.0687
  },
  "BKP": {
    "name": "Bakhtiyarpur",
    "division": "Danapur",
    "state": "Bihar",
    "latitude": 25.4612,
    "longitude": 85.5317
  },
  "AUBR": {
    "name": "Anugrah Narayan Road",
    "division": "Mughalsarai",
    "state": "Bihar",
    "latitude": 24.6474,
    "longitude": 84.8188
  },
  "SGL": {
    "name": "Sugauli",
    "division": "Samastipur",
    "state": "Bihar",
    "latitude": 26.7623,
    "longitude": 84.8553
  },
  "NKE": {
    "name": "Narkatiaganj",
    "division": "Samastipur",
    "state": "Bihar",
    "latitude": 27.1125,
    "longitude": 84.4747
  },
  "BGS": {
    "name": "Begusarai",
    "division": "Sonepur",
    "state": "Bihar",
    "latitude": 25.4186,
    "longitude": 86.1337
  },
  "SKI": {
    "name": "Sakari Jn.",
    "division": "Samastipur",
    "state": "Bihar",
    "latitude": 26.4045,
    "longitude": 86.1954
  },
  "PNC": {
    "name": "Patna Sahib",
    "division": "Danapur",
    "state": "Bihar",
    "latitude": 25.6121,
    "longitude": 85.2303
  },
  "SMI": {
    "name": "Sitamadhi",
    "division": "Samastipur",
    "state": "Bihar",
    "latitude": 26.595,
    "longitude": 85.4927
  },
  "JMU": {
    "name": "Jamui",
    "division": "Danapur",
    "state": "Bihar",
    "latitude": 24.9211,
    "longitude": 86.2246
  },
  "MKA": {
    "name": "Mokama",
    "division": "Danapur",
    "state": "Bihar",
    "latitude": 25.396,
    "longitude": 86.0844
  },
  "JAJ": {
    "name": "Jhanja",
    "division": "Danapur",
    "state": "Bihar",
    "latitude": 25.506,
    "longitude": 86.4771
  },
  "SGRL": {
    "name": "Singrauli",
    "division": "Dhanbad",
    "state": "Madhya Pradesh",
    "latitude": 24.201,
    "longitude": 82.6621
  },
  "BBU": {
    "name": "Bhabhua Road",
    "division": "Mughalsarai",
    "state": "Bihar",
    "latitude": 25.0506,
    "longitude": 83.5636
  },
  "GHD": {
    "name": "Garhwa Road",
    "division": "Dhanbad",
    "state": "Jharkhand",
    "latitude": 24.1642,
    "longitude": 83.8114
  },
  "MNE": {
    "name": "Mansi Jn.",
    "division": "Sonepur",
    "state": "Bihar",
    "latitude": 25.4783,
    "longitude": 86.5397
  },
  "DLN": {
    "name": "Dildarnagar",
    "division": "Danapur",
    "state": "Uttar Pradesh",
    "latitude": 25.4218,
    "longitude": 83.6685
  },
  "BUG": {
    "name": "Bagha",
    "division": "Samastipur",
    "state": "Bihar",
    "latitude": 27.1007,
    "longitude": 84.0584
  },
  "NNA": {
    "name": "Naugachia",
    "division": "Sonepur",
    "state": "Bihar",
    "latitude": 25.4056,
    "longitude": 87.0987
  },
  "SEE": {
    "name": "Sonepur",
    "division": "Sonepur",
    "state": "Bihar",
    "latitude": 25.7096,
    "longitude": 85.1719
  },
  "BRKA": {
    "name": "Barkakana",
    "division": "Dhanbad",
    "state": "Jharkhand",
    "latitude": 23.6203,
    "longitude": 85.4916
  },
  "JHD": {
    "name": "Jahanabad",
    "division": "Danapur",
    "state": "Bihar",
    "latitude": 25.2135,
    "longitude": 84.9858
  },
  "TEA": {
    "name": "Taregana",
    "division": "Danapur",
    "state": "Bihar",
    "latitude": 25.5019,
    "longitude": 85.2326
  },
  "FUT": {
    "name": "Fatuha",
    "division": "Danapur",
    "state": "Bihar",
    "latitude": 25.5098,
    "longitude": 85.2381
  },
  "BTA": {
    "name": "Bihta",
    "division": "Danapur",
    "state": "Bihar",
    "latitude": 25.5932,
    "longitude": 84.8734
  },
  "BARH": {
    "name": "Barh",
    "division": "Danapur",
    "state": "Bihar",
    "latitude": 25.4777,
    "longitude": 85.7089
  },
  "PURI": {
    "name": "Puri",
    "division": "Khurdh Road",
    "state": "Orissa",
    "latitude": 19.8045,
    "longitude": 85.8181
  },
  "BAM": {
    "name": "Brahmapur",
    "division": "Khurdh Road",
    "state": "Orissa",
    "latitude": 19.3111,
    "longitude": 84.792
  },
  "CTC": {
    "name": "Cuttack",
    "division": "Khurdh Road",
    "state": "Orissa",
    "latitude": 20.4625,
    "longitude": 85.8828
  },
  "VZM": {
    "name": "Vizianagaram",
    "division": "Waltair",
    "state": "Andhra Pradesh",
    "latitude": 18.1134,
    "longitude": 83.4214
  },
  "SBP": {
    "name": "Sambalpur",
    "division": "Sambalpur",
    "state": "Orissa",
    "latitude": 21.4651,
    "longitude": 83.981
  },
  "KUR": {
    "name": "Khurda Road",
    "division": "Khurda Road",
    "state": "Orissa",
    "latitude": 20.1578,
    "longitude": 85.707
  },
  "CHE": {
    "name": "Srikakulam",
    "division": "Waltair",
    "state": "Andhra Pradesh",
    "latitude": 18.2988,
    "longitude": 83.9028
  },
  "BHC": {
    "name": "Bhadrak",
    "division": "Khurda Road",
    "state": "Orissa",
    "latitude": 21.0575,
    "longitude": 86.518
  },
  "PSA": {
    "name": "Palasa",
    "division": "Khurda Road",
    "state": "Andhra Pradesh",
    "latitude": 18.7712,
    "longitude": 84.4315
  },
  "RGDA": {
    "name": "Rayagada",
    "division": "Waltair",
    "state": "Orissa",
    "latitude": 19.1711,
    "longitude": 83.4151
  },
  "JJKR": {
    "name": "Jajpur-Keonjhar Road",
    "division": "Khurda Road",
    "state": "Orissa",
    "latitude": 20.8501,
    "longitude": 86.3142
  },
  "DVD": {
    "name": "Duvvada",
    "division": "Waltair",
    "state": "Andhra Pradesh",
    "latitude": 17.7304,
    "longitude": 83.2288
  },
  "BLGR": {
    "name": "Bolangir",
    "division": "Sambalpur",
    "state": "Chhattisgarh",
    "latitude": 20.7131,
    "longitude": 83.4804
  },
  "TIG": {
    "name": "Titlagarh",
    "division": "Sambalpur",
    "state": "Orissa",
    "latitude": 20.2896,
    "longitude": 83.1745
  },
  "BALU": {
    "name": "Balugaon",
    "division": "Khurda Road",
    "state": "Orissa",
    "latitude": 19.7601,
    "longitude": 85.3871
  },
  "KSNG": {
    "name": "Kesinga",
    "division": "Sambalpur",
    "state": "Orissa",
    "latitude": 20.1844,
    "longitude": 83.2256
  },
  "DLI": {
    "name": "Delhi",
    "division": "Delhi",
    "state": "Delhi",
    "latitude": 28.6139,
    "longitude": 77.209
  },
  "JAT": {
    "name": "Jammu Tawi",
    "division": "Firozpur",
    "state": "Jammu & Kashmir",
    "latitude": 32.7357,
    "longitude": 74.8691
  },
  "BSB": {
    "name": "Varanasi",
    "division": "Lucknow",
    "state": "Uttar Pradesh",
    "latitude": 25.3176,
    "longitude": 82.9739
  },
  "LKO": {
    "name": "Lucknow",
    "division": "Lucknow",
    "state": "Uttar Pradesh",
    "latitude": 26.8467,
    "longitude": 80.9462
  },
  "LDH": {
    "name": "Ludhiana Jn",
    "division": "Firozpur",
    "state": "Punjab",
    "latitude": 30.9009,
    "longitude": 75.8573
  },
  "HW": {
    "name": "Haridwar",
    "division": "Moradabad",
    "state": "Uttarakhand",
    "latitude": 29.9457,
    "longitude": 78.1642
  },
  "UMB": {
    "name": "Ambala Cantt.",
    "division": "Ambala",
    "state": "Haryana",
    "latitude": 30.3782,
    "longitude": 76.7723
  },
  "SNP": {
    "name": "Sonipat",
    "division": "Delhi",
    "state": "Haryana",
    "latitude": 28.9959,
    "longitude": 77.0194
  },
  "BE": {
    "name": "Bareilly",
    "division": "Moradabad",
    "state": "Uttar Pradesh",
    "latitude": 28.367,
    "longitude": 79.4304
  },
  "DDN": {
    "name": "Dehradun",
    "division": "Moradabad",
    "state": "Uttarakhand",
    "latitude": 30.3165,
    "longitude": 78.0322
  },
  "SVDK": {
    "name": "Shri Mata Vaishno Devi Katra",
    "division": "Firozpur",
    "state": "Jammu & Kashmir",
    "latitude": 32.986,
    "longitude": 74.9481
  },
  "MB": {
    "name": "Moradabad",
    "division": "Moradabad",
    "state": "Uttar Pradesh",
    "latitude": 28.8319,
    "longitude": 78.7737
  },
  "SRE": {
    "name": "Saharanpur",
    "division": "Ambala",
    "state": "Uttar Pradesh",
    "latitude": 29.9597,
    "longitude": 77.5491
  },
  "FD": {
    "name": "Faizabad",
    "division": "Lucknow",
    "state": "Uttar Pradesh",
    "latitude": 26.7755,
    "longitude": 82.15
  },
  "BTI": {
    "name": "Bathinda",
    "division": "Ambala",
    "state": "Punjab",
    "latitude": 30.21,
    "longitude": 74.9455
  },
  "PTKC": {
    "name": "Pathankot Jn",
    "division": "Firozpur",
    "state": "Punjab",
    "latitude": 32.2731,
    "longitude": 75.6529
  },
  "MTC": {
    "name": "Meerut City",
    "division": "Delhi",
    "state": "Uttar Pradesh",
    "latitude": 28.98,
    "longitude": 77.7002
  },
  "SLN": {
    "name": "Sultanpur",
    "division": "Lucknow",
    "state": "Uttar Pradesh",
    "latitude": 26.2648,
    "longitude": 82.0727
  },
  "JRC": {
    "name": "Jalandhar City",
    "division": "Firozpur",
    "state": "Punjab",
    "latitude": 31.326,
    "longitude": 75.5762
  },
  "SPN": {
    "name": "Shahjahanpur",
    "division": "Moradabad",
    "state": "Uttar Pradesh",
    "latitude": 27.8777,
    "longitude": 79.9121
  },
  "KLK": {
    "name": "Kalka",
    "division": "Ambala",
    "state": "Haryana",
    "latitude": 30.8324,
    "longitude": 76.923
  },
  "PBH": {
    "name": "Pratapgarh",
    "division": "Lucknow",
    "state": "Uttar Pradesh",
    "latitude": 25.8975,
    "longitude": 81.9763
  },
  "SHG": {
    "name": "Shahganj",
    "division": "Lucknow",
    "state": "Uttar Pradesh",
    "latitude": 26.0509,
    "longitude": 82.6824
  },
  "FZR": {
    "name": "Firozpur Cantt",
    "division": "Firozpur",
    "state": "Punjab",
    "latitude": 30.9335,
    "longitude": 74.6252
  },
  "JNU": {
    "name": "Jaunpur",
    "division": "Lucknow",
    "state": "Uttar Pradesh",
    "latitude": 25.7461,
    "longitude": 82.6834
  },
  "ABP": {
    "name": "Akbarpur",
    "division": "Lucknow",
    "state": "Uttar Pradesh",
    "latitude": 26.4369,
    "longitude": 79.99
  },
  "RBL": {
    "name": "Raebareli",
    "division": "Lucknow",
    "state": "Uttar Pradesh",
    "latitude": 26.2307,
    "longitude": 81.2345
  },
  "RK": {
    "name": "Roorkee",
    "division": "Moradabad",
    "state": "Uttarakhand",
    "latitude": 29.8543,
    "longitude": 77.888
  },
  "ROK": {
    "name": "Rohtak",
    "division": "Delhi",
    "state": "Haryana",
    "latitude": 28.8955,
    "longitude": 76.6066
  },
  "HRI": {
    "name": "Raichu",
    "division": "Moradabad",
    "state": "Uttar Pradesh",
    "latitude": 26.75,
    "longitude": 82.25
  },
  "MOZ": {
    "name": "Muzaffarnagar",
    "division": "Delhi",
    "state": "Uttar Pradesh",
    "latitude": 29.473,
    "longitude": 77.7044
  },
  "PGW": {
    "name": "Phagwara Jn.",
    "division": "Firozpur",
    "state": "Punjab",
    "latitude": 31.2189,
    "longitude": 75.7717
  },
  "PWL": {
    "name": "Palwal",
    "division": "Delhi",
    "state": "Haryana",
    "latitude": 28.1417,
    "longitude": 77.3286
  },
  "RMU": {
    "name": "Rampur",
    "division": "Moradabad",
    "state": "Uttar Pradesh",
    "latitude": 28.812,
    "longitude": 79.0262
  },
  "UHP": {
    "name": "Udhampur",
    "division": "Firozpur",
    "state": "Jammu & Kashmir",
    "latitude": 32.9235,
    "longitude": 75.1447
  },
  "BOY": {
    "name": "Bhadohi",
    "division": "Lucknow",
    "state": "Uttar Pradesh",
    "latitude": 25.3946,
    "longitude": 82.5695
  },
  "RPJ": {
    "name": "Raj Pura",
    "division": "Ambala",
    "state": "Punjab",
    "latitude": 30.4859,
    "longitude": 76.5911
  },
  "JNH": {
    "name": "Janghai",
    "division": "Lucknow",
    "state": "Uttar Pradesh",
    "latitude": 25.4896,
    "longitude": 82.437
  },
  "PRG": {
    "name": "Prayag",
    "division": "Lucknow",
    "state": "Uttar Pradesh",
    "latitude": 25.4383,
    "longitude": 81.833
  },
  "PTK": {
    "name": "Pathankot Jn",
    "division": "Firozpur",
    "state": "Punjab",
    "latitude": 32.2731,
    "longitude": 75.6529
  },
  "HPU": {
    "name": "Hapur",
    "division": "Moradabad",
    "state": "Uttar Pradesh",
    "latitude": 28.7137,
    "longitude": 77.7836
  },
  "ON": {
    "name": "Unnao",
    "division": "Lucknow",
    "state": "Uttar Pradesh",
    "latitude": 26.54,
    "longitude": 80.487
  },
  "SIR": {
    "name": "Sirhind",
    "division": "Ambala",
    "state": "Punjab",
    "latitude": 30.6481,
    "longitude": 76.3772
  },
  "KKDE": {
    "name": "Kurukshetra",
    "division": "Delhi",
    "state": "Haryana",
    "latitude": 29.9695,
    "longitude": 76.8783
  },
  "BBK": {
    "name": "Barabanki",
    "division": "Lucknow",
    "state": "Uttar Pradesh",
    "latitude": 26.9294,
    "longitude": 81.1837
  },
  "JOP": {
    "name": "Jaunpur City",
    "division": "Lucknow",
    "state": "Uttar Pradesh",
    "latitude": 25.7461,
    "longitude": 82.6834
  },
  "PTA": {
    "name": "Patiala",
    "division": "Ambala",
    "state": "Punjab",
    "latitude": 30.3398,
    "longitude": 76.3869
  },
  "BVH": {
    "name": "Ballabhgarh",
    "division": "Delhi",
    "state": "Haryana",
    "latitude": 28.3569,
    "longitude": 77.3243
  },
  "AY": {
    "name": "Ayodhya",
    "division": "Lucknow",
    "state": "Uttar Pradesh",
    "latitude": 26.7926,
    "longitude": 82.1991
  },
  "AME": {
    "name": "Amethi",
    "division": "Lucknow",
    "state": "Uttar Pradesh",
    "latitude": 26.1514,
    "longitude": 81.8159
  },
  "CH": {
    "name": "Chandausi",
    "division": "Moradabad",
    "state": "Uttar Pradesh",
    "latitude": 28.4553,
    "longitude": 78.7743
  },
  "NBD": {
    "name": "Najibabad",
    "division": "Moradabad",
    "state": "Uttar Pradesh",
    "latitude": 29.6114,
    "longitude": 78.4323
  },
  "ABS": {
    "name": "Abhohar Jn",
    "division": "Ambala",
    "state": "Punjab",
    "latitude": 30.1445,
    "longitude": 74.2005
  },
  "SBB": {
    "name": "Sahibabad",
    "division": "Delhi",
    "state": "Uttar Pradesh",
    "latitude": 28.6833,
    "longitude": 77.4
  },
  "BGZ": {
    "name": "Bahadurgarh",
    "division": "Delhi",
    "state": "Haryana",
    "latitude": 28.6892,
    "longitude": 76.9354
  },
  "NNO": {
    "name": "Nangloi",
    "division": "Delhi",
    "state": "Delhi",
    "latitude": 28.6781,
    "longitude": 77.0672
  },
  "NUR": {
    "name": "Narela",
    "division": "Delhi",
    "state": "Delhi",
    "latitude": 28.8429,
    "longitude": 77.0923
  },
  "TKD": {
    "name": "Tughlakabad",
    "division": "Delhi",
    "state": "Delhi",
    "latitude": 28.4945,
    "longitude": 77.2612
  },
  "MDNR": {
    "name": "Modinagar",
    "division": "Delhi",
    "state": "Uttar Pradesh",
    "latitude": 28.8333,
    "longitude": 77.5833
  },
  "NOLI": {
    "name": "Noli",
    "division": "Delhi",
    "state": "Uttar Pradesh",
    "latitude": 28.75,
    "longitude": 77.2833
  },
  "GNU": {
    "name": "Ganaur",
    "division": "Delhi",
    "state": "Haryana",
    "latitude": 29.08,
    "longitude": 77.02
  },
  "FDN": {
    "name": "Faridabad New Town",
    "division": "Delhi",
    "state": "Haryana",
    "latitude": 28.4,
    "longitude": 77.3
  },
  "PTRD": {
    "name": "Pataudi Road",
    "division": "Delhi",
    "state": "Haryana",
    "latitude": 28.32,
    "longitude": 76.78
  },
  "BTU": {
    "name": "Braut",
    "division": "Delhi",
    "state": "Uttar Pradesh",
    "latitude": 28.75,
    "longitude": 77.2833
  },
  "AMRO": {
    "name": "Amroha",
    "division": "Moradabad",
    "state": "Uttar Pradesh",
    "latitude": 28.903,
    "longitude": 78.467
  },
  "PM": {
    "name": "Palam",
    "division": "Delhi",
    "state": "Delhi",
    "latitude": 28.58,
    "longitude": 77.12
  },
  "DSB": {
    "name": "Delhi Sadar Bazar",
    "division": "Delhi",
    "state": "Delhi",
    "latitude": 28.65,
    "longitude": 77.22
  },
  "JHS": {
    "name": "Jhansi",
    "division": "Jhansi",
    "state": "Uttar Pradesh",
    "latitude": 25.4484,
    "longitude": 78.5685
  },
  "MTJ": {
    "name": "Mathura",
    "division": "Agra Cantt.",
    "state": "Uttar Pradesh",
    "latitude": 27.4924,
    "longitude": 77.6737
  },
  "AF": {
    "name": "Agra Fort",
    "division": "Agra Cantt.",
    "state": "Uttar Pradesh",
    "latitude": 27.1794,
    "longitude": 78.0211
  },
  "ALJN": {
    "name": "Aligarh",
    "division": "Allahabad",
    "state": "Uttar Pradesh",
    "latitude": 27.8974,
    "longitude": 78.088
  },
  "COI": {
    "name": "Chheoki",
    "division": "Allahabad",
    "state": "Uttar Pradesh",
    "latitude": 25.4381,
    "longitude": 81.8782
  },
  "MZP": {
    "name": "Mirzapur",
    "division": "Allahabad",
    "state": "Uttar Pradesh",
    "latitude": 25.1445,
    "longitude": 82.5653
  },
  "ETW": {
    "name": "Etawah",
    "division": "Allahabad",
    "state": "Uttar Pradesh",
    "latitude": 26.7779,
    "longitude": 79.0219
  },
  "TDL": {
    "name": "Tundla",
    "division": "Allahabad",
    "state": "Uttar Pradesh",
    "latitude": 27.2146,
    "longitude": 78.236
  },
  "BNDA": {
    "name": "Banda",
    "division": "Jhansi",
    "state": "Uttar Pradesh",
    "latitude": 25.4753,
    "longitude": 80.3358
  },
  "MRA": {
    "name": "Morena",
    "division": "Jhansi",
    "state": "Madhya Pradesh",
    "latitude": 26.4947,
    "longitude": 77.9946
  },
  "LAR": {
    "name": "Lalitpur",
    "division": "Jhansi",
    "state": "Uttar Pradesh",
    "latitude": 24.69,
    "longitude": 78.4183
  },
  "CKTD": {
    "name": "Chitrakut Dham",
    "division": "Jhansi",
    "state": "Uttar Pradesh",
    "latitude": 25.201,
    "longitude": 80.858
  },
  "MBA": {
    "name": "Mahoba",
    "division": "Jhansi",
    "state": "Uttar Pradesh",
    "latitude": 25.292,
    "longitude": 79.872
  },
  "FTP": {
    "name": "Fatehpur",
    "division": "Allahabad",
    "state": "Uttar Pradesh",
    "latitude": 25.9304,
    "longitude": 80.8122
  },
  "RKM": {
    "name": "Raja ki Mandi",
    "division": "Agra Cantt.",
    "state": "Uttar Pradesh",
    "latitude": 27.1942,
    "longitude": 78.0081
  },
  "MKP": {
    "name": "Manikpur",
    "division": "Jhansi",
    "state": "Uttar Pradesh",
    "latitude": 25.0595,
    "longitude": 81.0975
  },
  "ORAI": {
    "name": "Orai",
    "division": "Jhansi",
    "state": "Uttar Pradesh",
    "latitude": 26.0028,
    "longitude": 79.45
  },
  "KURJ": {
    "name": "Khajuraho",
    "division": "Jhansi",
    "state": "Madhya Pradesh",
    "latitude": 24.85,
    "longitude": 79.9333
  },
  "PHD": {
    "name": "Phaphund",
    "division": "Allahabad",
    "state": "Uttar Pradesh",
    "latitude": 26.5997,
    "longitude": 79.4636
  },
  "DAA": {
    "name": "Datia",
    "division": "Jhansi",
    "state": "Madhya Pradesh",
    "latitude": 25.672,
    "longitude": 78.46
  },
  "DHO": {
    "name": "Dholpur Jn.",
    "division": "Agra Cantt.",
    "state": "Rajasthan",
    "latitude": 26.7025,
    "longitude": 77.893
  },
  "DBA": {
    "name": "Dabra",
    "division": "Jhansi",
    "state": "Madhya Pradesh",
    "latitude": 25.8925,
    "longitude": 78.3325
  },
  "DER": {
    "name": "Dadri",
    "division": "Allahabad",
    "state": "Uttar Pradesh",
    "latitude": 28.553,
    "longitude": 77.554
  },
  "KRJ": {
    "name": "Khurja",
    "division": "Allahabad",
    "state": "Uttar Pradesh",
    "latitude": 28.253,
    "longitude": 77.855
  },
  "GKP": {
    "name": "Gorakhpur Jn",
    "division": "Lucknow",
    "state": "Uttar Pradesh",
    "latitude": 26.761,
    "longitude": 83.3732
  },
  "LJN": {
    "name": "Lucknow Jn",
    "division": "Lucknow",
    "state": "Uttar Pradesh",
    "latitude": 26.8344,
    "longitude": 80.9231
  },
  "CPR": {
    "name": "Chhapra Jn",
    "division": "Varanasi",
    "state": "Bihar",
    "latitude": 25.78,
    "longitude": 84.73
  },
  "SV": {
    "name": "Siwan",
    "division": "Varanasi",
    "state": "Bihar",
    "latitude": 26.22,
    "longitude": 84.36
  },
  "GD": {
    "name": "Gonda Jn",
    "division": "Lucknow",
    "state": "Uttar Pradesh",
    "latitude": 27.1325,
    "longitude": 81.9692
  },
  "MUV": {
    "name": "Manduwadih",
    "division": "Varanasi",
    "state": "Uttar Pradesh",
    "latitude": 25.3092,
    "longitude": 82.9739
  },
  "BST": {
    "name": "Basti",
    "division": "Lucknow",
    "state": "Uttar Pradesh",
    "latitude": 26.7945,
    "longitude": 82.7329
  },
  "AMH": {
    "name": "Azamgarh",
    "division": "Varanasi",
    "state": "Uttar Pradesh",
    "latitude": 26.0676,
    "longitude": 83.1836
  },
  "BUI": {
    "name": "Ballia",
    "division": "Varanasi",
    "state": "Uttar Pradesh",
    "latitude": 25.7588,
    "longitude": 84.1486
  },
  "MAU": {
    "name": "Mau Jn",
    "division": "Varanasi",
    "state": "Uttar Pradesh",
    "latitude": 25.9492,
    "longitude": 83.5611
  },
  "DEOS": {
    "name": "Deoria Sadar",
    "division": "Varanasi",
    "state": "Uttar Pradesh",
    "latitude": 26.5017,
    "longitude": 83.7836
  },
  "KGM": {
    "name": "Kathgodam",
    "division": "Izzatnagar",
    "state": "Uttarakhand",
    "latitude": 29.2742,
    "longitude": 79.5266
  },
  "KLD": {
    "name": "Khalilabad",
    "division": "Lucknow",
    "state": "Uttar Pradesh",
    "latitude": 26.7742,
    "longitude": 83.0711
  },
  "FBD": {
    "name": "Farrukhabad",
    "division": "Izzatnagar",
    "state": "Uttar Pradesh",
    "latitude": 27.39,
    "longitude": 79.58
  },
  "GCT": {
    "name": "Ghazipur City",
    "division": "Varanasi",
    "state": "Uttar Pradesh",
    "latitude": 25.58,
    "longitude": 83.58
  },
  "RUPC": {
    "name": "Rudrapur City",
    "division": "Izzatnagar",
    "state": "Uttar Pradesh",
    "latitude": 28.98,
    "longitude": 79.4
  },
  "BLTR": {
    "name": "Belthara Road",
    "division": "Varanasi",
    "state": "Uttar Pradesh",
    "latitude": 26.12,
    "longitude": 83.9
  },
  "BNZ": {
    "name": "Badshahnagar",
    "division": "Lucknow",
    "state": "Uttar Pradesh",
    "latitude": 26.88,
    "longitude": 80.95
  },
  "KSJ": {
    "name": "Kasganj Jn",
    "division": "Izzatnagar",
    "state": "Uttar Pradesh",
    "latitude": 27.8,
    "longitude": 78.65
  },
  "KJN": {
    "name": "Kannauj",
    "division": "Izzatnagar",
    "state": "Uttar Pradesh",
    "latitude": 27.05,
    "longitude": 79.9
  },
  "BCY": {
    "name": "Varanasi",
    "division": "Varanasi",
    "state": "Uttar Pradesh",
    "latitude": 25.3176,
    "longitude": 82.9739
  },
  "BTT": {
    "name": "Bhatni",
    "division": "Varanasi",
    "state": "Uttar Pradesh",
    "latitude": 26.23,
    "longitude": 83.85
  },
  "LKU": {
    "name": "Lalkuan Jn",
    "division": "Izzatnagar",
    "state": "Uttarakhand",
    "latitude": 29.08,
    "longitude": 79.4
  },
  "HDW": {
    "name": "Haldwani",
    "division": "Izzatnagar",
    "state": "Uttar Pradesh",
    "latitude": 29.22,
    "longitude": 79.52
  },
  "MUR": {
    "name": "Mankapur Jn",
    "division": "Lucknow",
    "state": "Uttar Pradesh",
    "latitude": 27.05,
    "longitude": 82.05
  },
  "KPV": {
    "name": "Kashipur",
    "division": "Izzatnagar",
    "state": "Uttarakhand",
    "latitude": 29.22,
    "longitude": 78.95
  },
  "PBE": {
    "name": "Pilibhit Jn",
    "division": "Izzatnagar",
    "state": "Uttar Pradesh",
    "latitude": 28.64,
    "longitude": 79.81
  },
  "BC": {
    "name": "Bareilly City",
    "division": "Izzatnagar",
    "state": "Uttar Pradesh",
    "latitude": 28.35,
    "longitude": 79.42
  },
  "GHY": {
    "name": "Guwahati",
    "division": "Lumding",
    "state": "Assam",
    "latitude": 26.1832,
    "longitude": 91.7442
  },
  "NJP": {
    "name": "New Jalpaiguri",
    "division": "Katihar",
    "state": "West Bengal",
    "latitude": 26.6843,
    "longitude": 88.4285
  },
  "KIR": {
    "name": "Katihar",
    "division": "Katihar",
    "state": "Bihar",
    "latitude": 25.5385,
    "longitude": 87.5706
  },
  "KYQ": {
    "name": "Kamakhya",
    "division": "Lumding",
    "state": "Assam",
    "latitude": 26.1662,
    "longitude": 91.7052
  },
  "DMV": {
    "name": "Dimapur",
    "division": "Lumding",
    "state": "Nagaland",
    "latitude": 25.9063,
    "longitude": 93.7276
  },
  "KNE": {
    "name": "Kishanganj",
    "division": "Katihar",
    "state": "Bihar",
    "latitude": 25.6846,
    "longitude": 87.9422
  },
  "NCB": {
    "name": "New Coochbehar",
    "division": "Alipur Dwar",
    "state": "West Bengal",
    "latitude": 26.342,
    "longitude": 89.4512
  },
  "NTSK": {
    "name": "New Tinsukia",
    "division": "Tinsukia",
    "state": "Assam",
    "latitude": 27.489,
    "longitude": 95.3585
  },
  "DBRT": {
    "name": "Dibrugarh Town",
    "division": "Tinsukia",
    "state": "Assam",
    "latitude": 27.4728,
    "longitude": 94.911
  },
  "NBQ": {
    "name": "New Bongaigaon",
    "division": "Rangiya",
    "state": "Assam",
    "latitude": 26.5023,
    "longitude": 90.535
  },
  "RNY": {
    "name": "Rangiya Jn.",
    "division": "Rangiya",
    "state": "Assam",
    "latitude": 26.4486,
    "longitude": 91.6222
  },
  "MXN": {
    "name": "Mariyani Jn.",
    "division": "Tinsukia",
    "state": "Assam",
    "latitude": 26.662,
    "longitude": 94.172
  },
  "NOQ": {
    "name": "New Alipurduar",
    "division": "Alipurduar",
    "state": "West Bengal",
    "latitude": 26.498,
    "longitude": 89.527
  },
  "BOE": {
    "name": "Barsoi Jn.",
    "division": "Katihar",
    "state": "Bihar",
    "latitude": 25.629,
    "longitude": 87.925
  },
  "DBRG": {
    "name": "Dibrugarh",
    "division": "Tinsukia",
    "state": "Assam",
    "latitude": 27.4728,
    "longitude": 94.911
  },
  "SCL": {
    "name": "Silchar",
    "division": "Lumding",
    "state": "Assam",
    "latitude": 24.827,
    "longitude": 92.797
  },
  "JBN": {
    "name": "Jogbani",
    "division": "Katihar",
    "state": "Bihar",
    "latitude": 26.399,
    "longitude": 87.262
  },
  "LMG": {
    "name": "Lumding",
    "division": "Lumding",
    "state": "Assam",
    "latitude": 25.75,
    "longitude": 93.17
  },
  "RGJ": {
    "name": "Raiganj",
    "division": "Katihar",
    "state": "West Bengal",
    "latitude": 25.616,
    "longitude": 88.124
  },
  "BPRD": {
    "name": "Barpeta Road",
    "division": "Rangiya",
    "state": "Assam",
    "latitude": 26.502,
    "longitude": 90.97
  },
  "APDJ": {
    "name": "Alipurduar Jn.",
    "division": "Alipurduar",
    "state": "West Bengal",
    "latitude": 26.483,
    "longitude": 89.522
  },
  "DQG": {
    "name": "Dhupguri",
    "division": "Alipurduar",
    "state": "West Bengal",
    "latitude": 26.589,
    "longitude": 89.007
  },
  "KOJ": {
    "name": "Kokrajhar",
    "division": "Alipurduar",
    "state": "Assam",
    "latitude": 26.4,
    "longitude": 90.27
  },
  "SGUJ": {
    "name": "Siliguri Jn.",
    "division": "Katihar",
    "state": "West Bengal",
    "latitude": 26.727,
    "longitude": 88.395
  },
  "PRNA": {
    "name": "Purnea",
    "division": "Katihar",
    "state": "Bihar",
    "latitude": 25.778,
    "longitude": 87.475
  },
  "ARQ": {
    "name": "Araria Court",
    "division": "Katihar",
    "state": "Bihar",
    "latitude": 26.15,
    "longitude": 87.45
  },
  "BKN": {
    "name": "Bikaner",
    "division": "Bikaner",
    "state": "Rajasthan",
    "latitude": 28.022,
    "longitude": 73.311
  },
  "ABR": {
    "name": "Abu Road",
    "division": "Ajmer",
    "state": "Rajasthan",
    "latitude": 24.48,
    "longitude": 72.78
  },
  "RE": {
    "name": "Rewari",
    "division": "Jaipur",
    "state": "Haryana",
    "latitude": 28.2,
    "longitude": 76.62
  },
  "AWR": {
    "name": "Alwar",
    "division": "Jaipur",
    "state": "Rajasthan",
    "latitude": 27.56,
    "longitude": 76.6
  },
  "FA": {
    "name": "Falna",
    "division": "Ajmer",
    "state": "Rajasthan",
    "latitude": 25.23,
    "longitude": 73.25
  },
  "SGNR": {
    "name": "Sri Ganga Nagar",
    "division": "Bikaner",
    "state": "Rajasthan",
    "latitude": 29.92,
    "longitude": 73.88
  },
  "HSR": {
    "name": "Hisar",
    "division": "Bikaner",
    "state": "Haryana",
    "latitude": 29.17,
    "longitude": 75.72
  },
  "JSM": {
    "name": "Jaisalmer",
    "division": "Jodhpur",
    "state": "Rajasthan",
    "latitude": 26.9157,
    "longitude": 70.9083
  },
  "BHL": {
    "name": "Bhilwara",
    "division": "Ajmer",
    "state": "Rajasthan",
    "latitude": 25.3471,
    "longitude": 74.6408
  },
  "BKI": {
    "name": "Bandikui",
    "division": "Jaipur",
    "state": "Rajasthan",
    "latitude": 27.05,
    "longitude": 76.57
  },
  "SOG": {
    "name": "Suratgarh",
    "division": "Bikaner",
    "state": "Rajasthan",
    "latitude": 29.32,
    "longitude": 73.9
  },
  "NGO": {
    "name": "Nagaur",
    "division": "Jodhpur",
    "state": "Rajasthan",
    "latitude": 27.2,
    "longitude": 73.73
  },
  "MJ": {
    "name": "Marwar Jn.",
    "division": "Ajmer",
    "state": "Rajasthan",
    "latitude": 25.65,
    "longitude": 73.45
  },
  "PMY": {
    "name": "Pali Marwar",
    "division": "Jodhpur",
    "state": "Rajasthan",
    "latitude": 25.77,
    "longitude": 73.32
  },
  "BME": {
    "name": "Barmer",
    "division": "Jodhpur",
    "state": "Rajasthan",
    "latitude": 25.75,
    "longitude": 71.38
  },
  "BGKT": {
    "name": "Bhagat Ki Kothi",
    "division": "Jodhpur",
    "state": "Rajasthan",
    "latitude": 26.27,
    "longitude": 73.02
  },
  "LGH": {
    "name": "Lalgarh",
    "division": "Bikaner",
    "state": "Rajasthan",
    "latitude": 28.03,
    "longitude": 73.33
  },
  "HMH": {
    "name": "Hanumangarh Jn.",
    "division": "Bikaner",
    "state": "Rajasthan",
    "latitude": 29.58,
    "longitude": 74.32
  },
  "BNW": {
    "name": "Bhiwani",
    "division": "Bikaner",
    "state": "Haryana",
    "latitude": 28.8,
    "longitude": 76.13
  },
  "MTD": {
    "name": "Merta Road",
    "division": "Jodhpur",
    "state": "Rajasthan",
    "latitude": 26.65,
    "longitude": 74.03
  },
  "DO": {
    "name": "Dausa",
    "division": "Jaipur",
    "state": "Rajasthan",
    "latitude": 26.89,
    "longitude": 76.33
  },
  "KSG": {
    "name": "Kishangarh",
    "division": "Jaipur",
    "state": "Rajasthan",
    "latitude": 26.58,
    "longitude": 74.86
  },
  "FL": {
    "name": "Phulera",
    "division": "Jaipur",
    "state": "Rajasthan",
    "latitude": 26.87,
    "longitude": 75.24
  },
  "DPA": {
    "name": "Durgapura",
    "division": "Jaipur",
    "state": "Rajasthan",
    "latitude": 26.84,
    "longitude": 75.79
  },
  "BER": {
    "name": "Beawar",
    "division": "Ajmer",
    "state": "Rajasthan",
    "latitude": 25.74,
    "longitude": 73.88
  },
  "SSA": {
    "name": "Sirsa",
    "division": "Bikaner",
    "state": "Haryana",
    "latitude": 29.53,
    "longitude": 75.03
  },
  "MAS": {
    "name": "Chennai Central",
    "division": "Chennai",
    "state": "TamilNadu",
    "latitude": 13.0827,
    "longitude": 80.275
  },
  "MS": {
    "name": "Chennai Egmore",
    "division": "Chennai",
    "state": "TamilNadu",
    "latitude": 13.0732,
    "longitude": 80.2606
  },
  "TBM": {
    "name": "Tambaram",
    "division": "Chennai",
    "state": "TamilNadu",
    "latitude": 12.9228,
    "longitude": 80.1275
  },
  "CBE": {
    "name": "Coimbatore Jn.",
    "division": "Salem",
    "state": "TamilNadu",
    "latitude": 11.0012,
    "longitude": 76.9661
  },
  "TVC": {
    "name": "Tiruvananthapuram Central",
    "division": "Tiruchchirappalli",
    "state": "TamilNadu",
    "latitude": 8.4875,
    "longitude": 76.9526
  },
  "MDU": {
    "name": "Madurai Jn.",
    "division": "Madurai",
    "state": "TamilNadu",
    "latitude": 9.9252,
    "longitude": 78.1198
  },
  "CLT": {
    "name": "Kozhikode",
    "division": "Palghat",
    "state": "Kerala",
    "latitude": 11.2588,
    "longitude": 75.7804
  },
  "KPD": {
    "name": "Katpadi",
    "division": "Chennai",
    "state": "TamilNadu",
    "latitude": 12.9698,
    "longitude": 79.1412
  },
  "TCR": {
    "name": "Thrissur",
    "division": "Trivandrum",
    "state": "Kerala",
    "latitude": 10.5276,
    "longitude": 76.2144
  },
  "CGL": {
    "name": "Chengalpattu Jn.",
    "division": "Chennai",
    "state": "TamilNadu",
    "latitude": 12.7,
    "longitude": 79.98
  },
  "AJJ": {
    "name": "Arakkonam Jn.",
    "division": "Chennai",
    "state": "TamilNadu",
    "latitude": 13.08,
    "longitude": 79.67
  },
  "TRL": {
    "name": "Tiruvallur",
    "division": "Chennai",
    "state": "TamilNadu",
    "latitude": 13.12,
    "longitude": 79.91
  },
  "TPJ": {
    "name": "Tiruchchirappalli Jn",
    "division": "Tiruchchirappalli",
    "state": "Tamilnadu",
    "latitude": 10.805,
    "longitude": 78.6856
  },
  "TEN": {
    "name": "Tirunelveli Jn",
    "division": "Madurai",
    "state": "Tamilnadu",
    "latitude": 8.7139,
    "longitude": 77.7567
  },
  "MAQ": {
    "name": "Mangalore Central",
    "division": "Palghat",
    "state": "Karnataka",
    "latitude": 12.8676,
    "longitude": 74.8354
  },
  "ED": {
    "name": "Erode Jn",
    "division": "Salem",
    "state": "Tamilnadu",
    "latitude": 11.341,
    "longitude": 77.7274
  },
  "SA": {
    "name": "Salem Jn",
    "division": "Salem",
    "state": "Tamilnadu",
    "latitude": 11.6643,
    "longitude": 78.146
  },
  "CAN": {
    "name": "Kannur",
    "division": "Palghat",
    "state": "Kerala",
    "latitude": 11.8745,
    "longitude": 75.3704
  },
  "ERN": {
    "name": "Eraniel",
    "division": "Trivandrum",
    "state": "Tamilnadu",
    "latitude": 8.2149,
    "longitude": 77.3216
  },
  "TUP": {
    "name": "Tiruppur",
    "division": "Salem",
    "state": "Tamilnadu",
    "latitude": 11.1085,
    "longitude": 77.3411
  },
  "AWY": {
    "name": "Aluva",
    "division": "Trivandrum",
    "state": "Kerala",
    "latitude": 10.1065,
    "longitude": 76.3565
  },
  "PGT": {
    "name": "Palakkad Jn",
    "division": "Palghat",
    "state": "Kerala",
    "latitude": 10.7828,
    "longitude": 76.6548
  },
  "QLN": {
    "name": "Kollam Jn",
    "division": "Trivandrum",
    "state": "Kerala",
    "latitude": 8.8852,
    "longitude": 76.5953
  },
  "KTYM": {
    "name": "Kottayam",
    "division": "Trivandrum",
    "state": "Kerala",
    "latitude": 9.5916,
    "longitude": 76.527
  },
  "SRR": {
    "name": "Shoranur Jn",
    "division": "Palghat",
    "state": "Kerala",
    "latitude": 10.767,
    "longitude": 76.2711
  },
  "CNGR": {
    "name": "Chengannur",
    "division": "Trivandrum",
    "state": "Kerala",
    "latitude": 9.315,
    "longitude": 76.6109
  },
  "NCJ": {
    "name": "Nagercoil Jn",
    "division": "Trivandrum",
    "state": "Tamilnadu",
    "latitude": 8.1915,
    "longitude": 77.4328
  },
  "KYJ": {
    "name": "Kayankulam Jn",
    "division": "Trivandrum",
    "state": "Kerala",
    "latitude": 9.1722,
    "longitude": 76.4988
  },
  "TLY": {
    "name": "Thalassery",
    "division": "Palghat",
    "state": "Kerala",
    "latitude": 11.7505,
    "longitude": 75.4897
  },
  "TJ": {
    "name": "Thanjavur Jn",
    "division": "Tiruchchirappalli",
    "state": "Tamilnadu",
    "latitude": 10.787,
    "longitude": 79.1378
  },
  "MAJN": {
    "name": "Mangalore Jn",
    "division": "Palghat",
    "state": "Karnataka",
    "latitude": 12.9172,
    "longitude": 74.8397
  },
  "DG": {
    "name": "Dindigul Jn",
    "division": "Madurai",
    "state": "Tamilnadu",
    "latitude": 10.3603,
    "longitude": 77.97
  },
  "RMM": {
    "name": "Rameswaram",
    "division": "Madurai",
    "state": "Tamilnadu",
    "latitude": 9.282,
    "longitude": 79.3015
  },
  "TN": {
    "name": "Tuticorin",
    "division": "Madurai",
    "state": "Tamilnadu",
    "latitude": 8.7832,
    "longitude": 78.1374
  },
  "JTJ": {
    "name": "Jolarpettai",
    "division": "Chennai",
    "state": "Tamilnadu",
    "latitude": 12.57,
    "longitude": 78.5731
  },
  "TIR": {
    "name": "Tirur",
    "division": "Palghat",
    "state": "Kerala",
    "latitude": 10.9149,
    "longitude": 75.924
  },
  "VM": {
    "name": "Villupuram Jn",
    "division": "Tiruchchirappalli",
    "state": "Tamilnadu",
    "latitude": 11.9383,
    "longitude": 79.4845
  },
  "KCVL": {
    "name": "Kochuveli",
    "division": "Trivandrum",
    "state": "Kerala",
    "latitude": 8.4989,
    "longitude": 76.8952
  },
  "ALLP": {
    "name": "Alappuzha",
    "division": "Trivandrum",
    "state": "Kerala",
    "latitude": 9.4981,
    "longitude": 76.3388
  },
  "PER": {
    "name": "Perambur",
    "division": "Chennai",
    "state": "Tamilnadu",
    "latitude": 13.1072,
    "longitude": 80.2574
  },
  "MBM": {
    "name": "Mambalam",
    "division": "Chennai",
    "state": "Tamilnadu",
    "latitude": 13.029,
    "longitude": 80.2214
  },
  "GI": {
    "name": "Guduvancheri",
    "division": "Chennai",
    "state": "Tamilnadu",
    "latitude": 12.8452,
    "longitude": 80.0635
  },
  "PRGL": {
    "name": "Perungalathur",
    "division": "Chennai",
    "state": "Tamilnadu",
    "latitude": 12.9245,
    "longitude": 80.0917
  },
  "CAPE": {
    "name": "Kanyakumari",
    "division": "Tamilnadu",
    "state": "Tamilnadu",
    "latitude": 8.0883,
    "longitude": 77.5385
  },
  "BDJ": {
    "name": "Vadakara",
    "division": "Palghat",
    "state": "Kerala",
    "latitude": 11.608,
    "longitude": 75.5913
  },
  "KGQ": {
    "name": "Kasargod",
    "division": "Palghat",
    "state": "Kerala",
    "latitude": 12.5,
    "longitude": 74.99
  },
  "TRVL": {
    "name": "Tiruvalla",
    "division": "Trivandrum",
    "state": "Kerala",
    "latitude": 9.3813,
    "longitude": 76.574
  },
  "KMU": {
    "name": "Kumbakonam",
    "division": "Tiruchchirappalli",
    "state": "Tamilnadu",
    "latitude": 10.96,
    "longitude": 79.38
  },
  "PAY": {
    "name": "Payyannur",
    "division": "Palghat",
    "state": "Kerala",
    "latitude": 12.093,
    "longitude": 75.202
  },
  "CVP": {
    "name": "Kovilpatti",
    "division": "Madurai",
    "state": "Tamilnadu",
    "latitude": 9.171,
    "longitude": 77.868
  },
  "VPT": {
    "name": "Virudhunagar Jn",
    "division": "Madurai",
    "state": "Tamilnadu",
    "latitude": 9.585,
    "longitude": 77.957
  },
  "MV": {
    "name": "Mayiladuthurai Jn",
    "division": "Tiruchchirappalli",
    "state": "Tamilnadu",
    "latitude": 11.103,
    "longitude": 79.655
  },
  "NGT": {
    "name": "Nagappattinam",
    "division": "Tiruchchirappalli",
    "state": "Tamilnadu",
    "latitude": 10.765,
    "longitude": 79.842
  },
  "KZE": {
    "name": "Kanhangad",
    "division": "Palghat",
    "state": "Kerala",
    "latitude": 12.332,
    "longitude": 75.085
  },
  "KRR": {
    "name": "Karur Jn",
    "division": "Salem",
    "state": "Tamilnadu",
    "latitude": 10.957,
    "longitude": 78.078
  },
  "RMD": {
    "name": "Ramanathapuram",
    "division": "Madurai",
    "state": "Tamilnadu",
    "latitude": 9.371,
    "longitude": 79.312
  },
  "KTU": {
    "name": "Kuttipuram",
    "division": "Palghat",
    "state": "Kerala",
    "latitude": 10.833,
    "longitude": 76.067
  },
  "MTP": {
    "name": "Mettupalaiyam",
    "division": "Salem",
    "state": "Tamilnadu",
    "latitude": 11.432,
    "longitude": 76.933
  },
  "CGY": {
    "name": "Changanacheri",
    "division": "Trivandrum",
    "state": "Kerala",
    "latitude": 9.441,
    "longitude": 76.54
  },
  "VAK": {
    "name": "Varkalashivagiri",
    "division": "Trivandrum",
    "state": "Kerala",
    "latitude": 8.738,
    "longitude": 76.725
  },
  "TRT": {
    "name": "Tiruttani",
    "division": "Chennai",
    "state": "Tamilnadu",
    "latitude": 13.18,
    "longitude": 79.62
  },
  "SKL": {
    "name": "Singaperumalkoil",
    "division": "Chennai",
    "state": "Tamilnadu",
    "latitude": 12.746,
    "longitude": 80.002
  },
  "AFK": {
    "name": "Angamali for Kaladi",
    "division": "Trivandrum",
    "state": "Kerala",
    "latitude": 10.183,
    "longitude": 76.385
  },
  "HYB": {
    "name": "Hyderabad",
    "division": "Secunderabad",
    "state": "Andhra Pradesh",
    "latitude": 17.385,
    "longitude": 78.4867
  },
  "KCG": {
    "name": "Kacheguda",
    "division": "Hyderabad",
    "state": "Telangana",
    "latitude": 17.385,
    "longitude": 78.4867
  },
  "NED": {
    "name": "Huzur Saheb Nanded",
    "division": "Nanded",
    "state": "Maharashtra",
    "latitude": 19.16,
    "longitude": 77.32
  },
  "RJY": {
    "name": "Rajahmundry",
    "division": "Vijayawada",
    "state": "Andhra Pradesh",
    "latitude": 16.989,
    "longitude": 81.784
  },
  "AWB": {
    "name": "Aurangabad",
    "division": "Nanded",
    "state": "Maharashtra",
    "latitude": 19.88,
    "longitude": 75.32
  },
  "RU": {
    "name": "Renigunta",
    "division": "Guntakal",
    "state": "Andhra Pradesh",
    "latitude": 13.65,
    "longitude": 79.42
  },
  "GNT": {
    "name": "Guntur",
    "division": "Guntur",
    "state": "Andhra Pradesh",
    "latitude": 16.306,
    "longitude": 80.436
  },
  "WL": {
    "name": "Warangal",
    "division": "Secunderabad",
    "state": "Andhra Pradesh",
    "latitude": 17.978,
    "longitude": 79.591
  },
  "SLO": {
    "name": "Samalkot",
    "division": "Vijayawada",
    "state": "Andhra Pradesh",
    "latitude": 17.053,
    "longitude": 82.169
  },
  "KZJ": {
    "name": "Kazipet Jn",
    "division": "Secunderabad",
    "state": "Andhra Pradesh",
    "latitude": 17.97,
    "longitude": 79.53
  },
  "OGL": {
    "name": "Ongole",
    "division": "Vijayawada",
    "state": "Andhra Pradesh",
    "latitude": 15.5,
    "longitude": 80.05
  },
  "KMT": {
    "name": "Khammam",
    "division": "Secunderabad",
    "state": "Andhra Pradesh",
    "latitude": 17.25,
    "longitude": 80.15
  },
  "GTL": {
    "name": "Guntakal",
    "division": "Guntakal",
    "state": "Andhra Pradesh",
    "latitude": 15.17,
    "longitude": 77.38
  },
  "GDR": {
    "name": "Gudur",
    "division": "Vijayawada",
    "state": "Andhra Pradesh",
    "latitude": 14.15,
    "longitude": 79.85
  },
  "CCT": {
    "name": "Kakinada Tn",
    "division": "Vijayawada",
    "state": "Andhra Pradesh",
    "latitude": 16.933,
    "longitude": 82.216
  },
  "RC": {
    "name": "Raichur",
    "division": "Guntakal",
    "state": "Karnataka",
    "latitude": 16.2,
    "longitude": 77.3667
  },
  "PBN": {
    "name": "Parbhani",
    "division": "Nanded",
    "state": "Maharashtra",
    "latitude": 19.27,
    "longitude": 76.77
  },
  "NSL": {
    "name": "Nagarsol",
    "division": "Nanded",
    "state": "Maharashtra",
    "latitude": 20.25,
    "longitude": 74.44
  },
  "TEL": {
    "name": "Tenali",
    "division": "Vijayawada",
    "state": "Andhra Pradesh",
    "latitude": 16.24,
    "longitude": 80.64
  },
  "ATP": {
    "name": "Anantapur",
    "division": "Guntakal",
    "state": "Andhra Pradesh",
    "latitude": 14.68,
    "longitude": 77.6
  },
  "NZB": {
    "name": "Nizamabad",
    "division": "Hyderabad",
    "state": "Andhra Pradesh",
    "latitude": 18.67,
    "longitude": 78.1
  },
  "YG": {
    "name": "Yadgir",
    "division": "Guntakal",
    "state": "Karnataka",
    "latitude": 16.77,
    "longitude": 77.14
  },
  "EE": {
    "name": "Eluru",
    "division": "Vijayawada",
    "state": "Andhra Pradesh",
    "latitude": 16.71,
    "longitude": 81.1
  },
  "BVRT": {
    "name": "Bhimavaram Tn",
    "division": "Vijayawada",
    "state": "Andhra Pradesh",
    "latitude": 16.54,
    "longitude": 81.52
  },
  "HX": {
    "name": "Cuddapah",
    "division": "Guntakal",
    "state": "Andhra Pradesh",
    "latitude": 14.47,
    "longitude": 78.82
  },
  "LPI": {
    "name": "Lingampalli",
    "division": "Secunderabad",
    "state": "Telangana",
    "latitude": 17.5,
    "longitude": 78.32
  },
  "KRNT": {
    "name": "Kurnool Tn",
    "division": "Hyderabad",
    "state": "Andhra Pradesh",
    "latitude": 15.83,
    "longitude": 78.05
  },
  "AKP": {
    "name": "Anakapalli",
    "division": "Vijayawada",
    "state": "Andhra Pradesh",
    "latitude": 17.68,
    "longitude": 83
  },
  "J": {
    "name": "Jalna",
    "division": "Nanded",
    "state": "Maharashtra",
    "latitude": 19.84,
    "longitude": 75.88
  },
  "TDD": {
    "name": "Tadepalligudem",
    "division": "Vijayawada",
    "state": "Andhra Pradesh",
    "latitude": 16.81,
    "longitude": 81.52
  },
  "CLX": {
    "name": "Chirala",
    "division": "Vijayawada",
    "state": "Andhra Pradesh",
    "latitude": 15.82,
    "longitude": 80.35
  },
  "TUNI": {
    "name": "Tuni",
    "division": "Vijayawada",
    "state": "Andhra Pradesh",
    "latitude": 17.35,
    "longitude": 82.55
  },
  "MCI": {
    "name": "Manchiryal",
    "division": "Secunderabad",
    "state": "Andhra Pradesh",
    "latitude": 18.85,
    "longitude": 79.45
  },
  "BIDR": {
    "name": "Bidar",
    "division": "Secunderabad",
    "state": "Karnataka",
    "latitude": 17.91,
    "longitude": 77.53
  },
  "AD": {
    "name": "Adoni",
    "division": "Guntakal",
    "state": "Andhra Pradesh",
    "latitude": 15.63,
    "longitude": 77.28
  },
  "COA": {
    "name": "Kakinada Port",
    "division": "Vijayawada",
    "state": "Andhra Pradesh",
    "latitude": 16.93,
    "longitude": 82.22
  },
  "RDM": {
    "name": "Ramagundam",
    "division": "Secunderabad",
    "state": "Andhra Pradesh",
    "latitude": 18.75,
    "longitude": 79.45
  },
  "DMM": {
    "name": "Dharmavaram",
    "division": "Guntakal",
    "state": "Andhra Pradesh",
    "latitude": 14.42,
    "longitude": 77.72
  },
  "NS": {
    "name": "Narasapur",
    "division": "Vijayawada",
    "state": "Andhra Pradesh",
    "latitude": 16.43,
    "longitude": 81.67
  },
  "BDCR": {
    "name": "Bhadrachalam Rd",
    "division": "Secunderabad",
    "state": "Andhra Pradesh",
    "latitude": 17.67,
    "longitude": 80.89
  },
  "MALM": {
    "name": "Mantralayam Rd",
    "division": "Guntakal",
    "state": "Andhra Pradesh",
    "latitude": 15.77,
    "longitude": 77.27
  },
  "GDV": {
    "name": "Gudivada",
    "division": "Vijayawada",
    "state": "Andhra Pradesh",
    "latitude": 16.44,
    "longitude": 81
  },
  "MABD": {
    "name": "Mahbubabad",
    "division": "Secunderabad",
    "state": "Andhra Pradesh",
    "latitude": 17.6,
    "longitude": 80
  },
  "BMT": {
    "name": "Begumpet",
    "division": "Secunderabad",
    "state": "Andhra Pradesh",
    "latitude": 17.44,
    "longitude": 78.46
  },
  "NDL": {
    "name": "Nandyal",
    "division": "Guntur",
    "state": "Andhra Pradesh",
    "latitude": 15.48,
    "longitude": 78.48
  },
  "TDU": {
    "name": "Tandur",
    "division": "Secundarabad",
    "state": "Telangana",
    "latitude": 17.2485,
    "longitude": 77.577
  },
  "CTO": {
    "name": "Chittoor",
    "division": "Guntakal",
    "state": "Andhra Pradesh",
    "latitude": 13.2171,
    "longitude": 79.1007
  },
  "VKB": {
    "name": "Vikarabad",
    "division": "Secundarabad",
    "state": "Telangana",
    "latitude": 17.3364,
    "longitude": 77.9048
  },
  "RAL": {
    "name": "Repalle",
    "division": "Guntur",
    "state": "Andhra Pradesh",
    "latitude": 16.0184,
    "longitude": 80.8296
  },
  "TATA": {
    "name": "Tatanagar",
    "division": "Chakradharpur",
    "state": "Jharkhand",
    "latitude": 22.8046,
    "longitude": 86.2029
  },
  "KGP": {
    "name": "Kharagpur",
    "division": "Kharagpur",
    "state": "West Bengal",
    "latitude": 22.346,
    "longitude": 87.232
  },
  "ROU": {
    "name": "Rourkela",
    "division": "Chakradharpur",
    "state": "Odisha",
    "latitude": 22.225,
    "longitude": 84.8641
  },
  "HTE": {
    "name": "Hatia",
    "division": "Ranchi",
    "state": "Jharkhand",
    "latitude": 23.3109,
    "longitude": 85.3072
  },
  "SHM": {
    "name": "Shalimar",
    "division": "Kharagpur",
    "state": "West Bengal",
    "latitude": 22.5588,
    "longitude": 88.3033
  },
  "JSG": {
    "name": "Jharsuguda",
    "division": "Chakradharpur",
    "state": "Odisha",
    "latitude": 21.85,
    "longitude": 84.03
  },
  "BKSC": {
    "name": "Bokaro Steel City",
    "division": "Adra",
    "state": "Jharkhand",
    "latitude": 23.6693,
    "longitude": 86.1511
  },
  "BLS": {
    "name": "Balasore",
    "division": "Kharagpur",
    "state": "Odisha",
    "latitude": 21.495,
    "longitude": 86.9427
  },
  "CKP": {
    "name": "Chakradharpur",
    "division": "Chakradharpur",
    "state": "Jharkhand",
    "latitude": 22.7,
    "longitude": 85.63
  },
  "PRR": {
    "name": "Purulia Jn.",
    "division": "Adra",
    "state": "West Bengal",
    "latitude": 23.4956,
    "longitude": 86.6743
  },
  "DGHA": {
    "name": "Digha",
    "division": "Kharagpur",
    "state": "West Bengal",
    "latitude": 21.6266,
    "longitude": 87.5074
  },
  "BQA": {
    "name": "Bankura Jn.",
    "division": "Adra",
    "state": "West Bengal",
    "latitude": 23.2338,
    "longitude": 87.0873
  },
  "MDN": {
    "name": "Midnapur",
    "division": "Kharagpur",
    "state": "West Bengal",
    "latitude": 22.3304,
    "longitude": 87.3181
  },
  "ADRA": {
    "name": "Adra",
    "division": "Adra",
    "state": "West Bengal",
    "latitude": 23.4956,
    "longitude": 86.6743
  },
  "JGM": {
    "name": "Jhargram",
    "division": "Kharagpur",
    "state": "West Bengal",
    "latitude": 22.4538,
    "longitude": 86.995
  },
  "R": {
    "name": "Raipur",
    "division": "Raipur",
    "state": "Chhattisgarh",
    "latitude": 21.2376,
    "longitude": 81.5962
  },
  "BSP": {
    "name": "Bilaspur",
    "division": "Bilaspur",
    "state": "Chhattisgarh",
    "latitude": 22.0786,
    "longitude": 82.1523
  },
  "DURG": {
    "name": "Durg",
    "division": "Raipur",
    "state": "Chhattisgarh",
    "latitude": 21.1904,
    "longitude": 81.2849
  },
  "G": {
    "name": "Gondia",
    "division": "Nagpur (SECR)",
    "state": "Maharashtra",
    "latitude": 21.4598,
    "longitude": 80.195
  },
  "RIG": {
    "name": "Raigarh",
    "division": "Bilaspur",
    "state": "Chhattisgarh",
    "latitude": 21.8974,
    "longitude": 83.3966
  },
  "CPH": {
    "name": "CPH",
    "division": "Bilaspur",
    "state": "Chhattisgarh",
    "latitude": 22.0786,
    "longitude": 82.1523
  },
  "APR": {
    "name": "Anuppur",
    "division": "Bilaspur",
    "state": "Madhya Pradesh",
    "latitude": 23.1034,
    "longitude": 81.6908
  },
  "RJN": {
    "name": "Rajnandgaon",
    "division": "Nagpur (SECR)",
    "state": "Chhattisgarh",
    "latitude": 21.0979,
    "longitude": 81.0337
  },
  "SDL": {
    "name": "Shahdol",
    "division": "Bilaspur",
    "state": "Madhya Pradesh",
    "latitude": 23.3022,
    "longitude": 81.3568
  },
  "BYT": {
    "name": "Bhatapara",
    "division": "Raipur",
    "state": "Chhattisgarh",
    "latitude": 21.7384,
    "longitude": 81.948
  },
  "KRBA": {
    "name": "Korba",
    "division": "Bilaspur",
    "state": "Chhattisgarh",
    "latitude": 22.35,
    "longitude": 82.68
  },
  "BPHB": {
    "name": "Bhilai Power House",
    "division": "Raipur",
    "state": "Chhattisgarh",
    "latitude": 21.2092,
    "longitude": 81.4285
  },
  "ABKP": {
    "name": "Ambikapur",
    "division": "Bilaspur",
    "state": "Chhattisgarh",
    "latitude": 23.1164,
    "longitude": 83.1961
  },
  "ITR": {
    "name": "Itwari",
    "division": "Nagpur (SECR)",
    "state": "Maharashtra",
    "latitude": 21.15,
    "longitude": 79.1333
  },
  "DGG": {
    "name": "Dongargadh",
    "division": "Nagpur (SECR)",
    "state": "Chhattisgarh",
    "latitude": 21.1885,
    "longitude": 80.756
  },
  "MYS": {
    "name": "Mysore",
    "division": "Mysore",
    "state": "Karnataka",
    "latitude": 12.2979,
    "longitude": 76.6393
  },
  "UBL": {
    "name": "Hubli Junction",
    "division": "Hubli",
    "state": "Karnataka",
    "latitude": 15.3478,
    "longitude": 75.1338
  },
  "KJM": {
    "name": "Krishnarajapuram",
    "division": "Bangalore",
    "state": "Karnataka",
    "latitude": 12.995,
    "longitude": 77.68
  },
  "VSG": {
    "name": "Vasco-da-gama",
    "division": "Hubli",
    "state": "Goa",
    "latitude": 15.386,
    "longitude": 73.844
  },
  "BAY": {
    "name": "Bellary Jn.",
    "division": "Hubli",
    "state": "Karnataka",
    "latitude": 15.1421,
    "longitude": 76.924
  },
  "DVG": {
    "name": "Davangere",
    "division": "Mysore",
    "state": "Karnataka",
    "latitude": 14.4666,
    "longitude": 75.9242
  },
  "BWT": {
    "name": "Bangarapet",
    "division": "Bangalore",
    "state": "Karnataka",
    "latitude": 12.9915,
    "longitude": 78.1788
  },
  "MYA": {
    "name": "Mandya",
    "division": "Bangalore",
    "state": "Karnataka",
    "latitude": 12.5223,
    "longitude": 76.8975
  },
  "HPT": {
    "name": "Hospet Jn.",
    "division": "Hubli",
    "state": "Karnataka",
    "latitude": 15.2689,
    "longitude": 76.3909
  },
  "KGI": {
    "name": "Kengeri",
    "division": "Bangalore",
    "state": "Karnataka",
    "latitude": 12.8996,
    "longitude": 77.4827
  },
  "BJP": {
    "name": "Bijapur",
    "division": "Hubli",
    "state": "Karnataka",
    "latitude": 16.83,
    "longitude": 75.71
  },
  "SSPN": {
    "name": "Srisatyasaiprashanthinilayam",
    "division": "Bangalore",
    "state": "Andhra Pradesh",
    "latitude": 14.161,
    "longitude": 77.7589
  },
  "SMET": {
    "name": "Shimoga Tn.",
    "division": "Mysore",
    "state": "Karnataka",
    "latitude": 13.9316,
    "longitude": 75.5679
  },
  "GDG": {
    "name": "Gadag Jn.",
    "division": "Hubli",
    "state": "Karnataka",
    "latitude": 15.4233,
    "longitude": 75.6037
  },
  "ASK": {
    "name": "Arsikere",
    "division": "Mysore",
    "state": "Karnataka",
    "latitude": 13.3145,
    "longitude": 76.257
  },
  "YNK": {
    "name": "Yelahanka",
    "division": "Bangalore",
    "state": "Karnataka",
    "latitude": 13.1007,
    "longitude": 77.5963
  },
  "HSRA": {
    "name": "Hosur",
    "division": "Bangalore",
    "state": "TamilNadu",
    "latitude": 12.7365,
    "longitude": 77.8326
  },
  "TK": {
    "name": "Tumkur",
    "division": "Bangalore",
    "state": "Karnataka",
    "latitude": 13.3414,
    "longitude": 77.1022
  },
  "MLO": {
    "name": "Malur",
    "division": "Bangalore",
    "state": "Karnataka",
    "latitude": 13.021,
    "longitude": 77.938
  },
  "CPT": {
    "name": "Channapatna",
    "division": "Bangalore",
    "state": "Karnataka",
    "latitude": 12.6518,
    "longitude": 77.2089
  },
  "RMGM": {
    "name": "Ramanagaram",
    "division": "Bangalore",
    "state": "Karnataka",
    "latitude": 12.9716,
    "longitude": 77.5946
  },
  "WFD": {
    "name": "Whitefield",
    "division": "Bangalore",
    "state": "Karnataka",
    "latitude": 12.9714,
    "longitude": 77.7501
  },
  "NTW": {
    "name": "Nanjangud Tn",
    "division": "Mysore",
    "state": "Karnataka",
    "latitude": 12.1176,
    "longitude": 76.684
  },
  "KPN": {
    "name": "Kuppam",
    "division": "Bangalore",
    "state": "Andhra Pradesh",
    "latitude": 12.7482,
    "longitude": 78.3461
  },
  "BRC": {
    "name": "Vadodara Jn.",
    "division": "Vadodara",
    "state": "Gujarat",
    "latitude": 22.2994,
    "longitude": 73.2081
  },
  "UJN": {
    "name": "Ujjain",
    "division": "Ratlam",
    "state": "Madhya Pradesh",
    "latitude": 23.3304,
    "longitude": 75.0443
  },
  "NVS": {
    "name": "Navsari",
    "division": "Mumbai",
    "state": "Gujarat",
    "latitude": 20.95,
    "longitude": 72.93
  },
  "RJT": {
    "name": "Rajkot",
    "division": "Rajkot",
    "state": "Gujarat",
    "latitude": 22.2916,
    "longitude": 70.7932
  },
  "VAPI": {
    "name": "Vapi",
    "division": "Mumbai",
    "state": "Gujarat",
    "latitude": 20.3718,
    "longitude": 72.9049
  },
  "RTM": {
    "name": "Ratlam",
    "division": "Ratlam",
    "state": "Madhya Pradesh",
    "latitude": 23.3342,
    "longitude": 75.0376
  },
  "JAM": {
    "name": "Jamnagar",
    "division": "Rajkot",
    "state": "Gujarat",
    "latitude": 22.4729,
    "longitude": 70.0667
  },
  "BH": {
    "name": "Bharuch Jn.",
    "division": "Vadodara",
    "state": "Gujarat",
    "latitude": 21.6948,
    "longitude": 72.9805
  },
  "GIMB": {
    "name": "Gandhidham",
    "division": "Ahmedabad",
    "state": "Gujarat",
    "latitude": 23.0791,
    "longitude": 70.1402
  },
  "BHUJ": {
    "name": "Bhuj",
    "division": "Ahmedabad",
    "state": "Gujarat",
    "latitude": 23.242,
    "longitude": 69.6669
  },
  "ANND": {
    "name": "Anand",
    "division": "Vadodara",
    "state": "Gujarat",
    "latitude": 22.5525,
    "longitude": 72.9552
  },
  "COR": {
    "name": "Chittorgarh",
    "division": "Ratlam",
    "state": "Rajasthan",
    "latitude": 24.8799,
    "longitude": 74.6299
  },
  "AKV": {
    "name": "Ankleshwar",
    "division": "Vadodara",
    "state": "Gujarat",
    "latitude": 21.6324,
    "longitude": 72.99
  },
  "ND": {
    "name": "Nadiad",
    "division": "Vadodara",
    "state": "Gujarat",
    "latitude": 22.7,
    "longitude": 72.87
  },
  "BIM": {
    "name": "Bilimora",
    "division": "Mumbai",
    "state": "Gujarat",
    "latitude": 20.769,
    "longitude": 72.9778
  },
  "VRL": {
    "name": "Veraval",
    "division": "Bhavnagar",
    "state": "Gujarat",
    "latitude": 20.9115,
    "longitude": 70.3709
  },
  "BVC": {
    "name": "Bhavnagar",
    "division": "Bhavnagar",
    "state": "Gujarat",
    "latitude": 21.7745,
    "longitude": 72.1525
  },
  "DWK": {
    "name": "Dwarka",
    "division": "Rajkot",
    "state": "Gujarat",
    "latitude": 22.2394,
    "longitude": 68.9678
  },
  "DHD": {
    "name": "Dahod",
    "division": "Ratlam",
    "state": "Gujarat",
    "latitude": 22.8356,
    "longitude": 74.256
  },
  "NAD": {
    "name": "Nagda",
    "division": "Ratlam",
    "state": "Madhya Pradesh",
    "latitude": 23.4583,
    "longitude": 75.4176
  },
  "SUNR": {
    "name": "Surendranagar",
    "division": "Rajkot",
    "state": "Gujarat",
    "latitude": 22.7271,
    "longitude": 71.6486
  },
  "DWX": {
    "name": "Dewas",
    "division": "Ratlam",
    "state": "Madhya Pradesh",
    "latitude": 22.9659,
    "longitude": 76.0553
  },
  "JND": {
    "name": "Junagarh",
    "division": "Bhavnagar",
    "state": "Gujarat",
    "latitude": 21.7745,
    "longitude": 72.1525
  },
  "WKR": {
    "name": "Wankaner",
    "division": "Rajkot",
    "state": "Gujarat",
    "latitude": 22.62,
    "longitude": 70.93
  },
  "VG": {
    "name": "Viramgam",
    "division": "Ahmedabad",
    "state": "Gujarat",
    "latitude": 23.12,
    "longitude": 72.03
  },
  "SIOB": {
    "name": "Samakhiali",
    "division": "Ahmedabad",
    "state": "Gujarat",
    "latitude": 23.3333,
    "longitude": 70.5833
  },
  "NMH": {
    "name": "Nimach",
    "division": "Ratlam",
    "state": "Madhya Pradesh",
    "latitude": 24.4764,
    "longitude": 74.87
  },
  "KSB": {
    "name": "Kosamba",
    "division": "Vadodara",
    "state": "Gujarat",
    "latitude": 21.462,
    "longitude": 72.9584
  },
  "MHD": {
    "name": "Mahemadabad & Kheda Road",
    "division": "Vadodara",
    "state": "Gujarat",
    "latitude": 22.8194,
    "longitude": 72.7521
  },
  "BTD": {
    "name": "Botad",
    "division": "Bhavnagar",
    "state": "Gujarat",
    "latitude": 22.1829,
    "longitude": 71.6657
  },
  "MYG": {
    "name": "Miyagam Karjan Jn.",
    "division": "Vadodara",
    "state": "Gujarat",
    "latitude": 22.0493,
    "longitude": 73.1199
  },
  "UBR": {
    "name": "Umbergaon",
    "division": "Mumbai",
    "state": "Gujarat",
    "latitude": 20.2,
    "longitude": 72.75
  },
  "KIM": {
    "name": "Kim",
    "division": "Vadodara",
    "state": "Gujarat",
    "latitude": 21.4037,
    "longitude": 72.9238
  },
  "VR": {
    "name": "Virar",
    "division": "Mumbai",
    "state": "Maharashtra",
    "latitude": 19.4559,
    "longitude": 72.8114
  },
  "BYR": {
    "name": "Bhayandar",
    "division": "Mumbai",
    "state": "Maharashtra",
    "latitude": 19.3016,
    "longitude": 72.8511
  },
  "CCG": {
    "name": "Churchgate",
    "division": "Mumbai",
    "state": "Maharashtra",
    "latitude": 18.9322,
    "longitude": 72.8264
  },
  "BSR": {
    "name": "Vasai Road",
    "division": "Mumbai",
    "state": "Maharashtra",
    "latitude": 19.3666,
    "longitude": 72.8161
  },
  "NSP": {
    "name": "Nallasopara",
    "division": "Mumbai",
    "state": "Maharashtra",
    "latitude": 19.4323,
    "longitude": 72.7743
  },
  "MDD": {
    "name": "Malad",
    "division": "Mumbai",
    "state": "Maharashtra",
    "latitude": 19.1868,
    "longitude": 72.8489
  },
  "GMN": {
    "name": "Goregaon",
    "division": "Mumbai",
    "state": "Maharashtra",
    "latitude": 19.155,
    "longitude": 72.85
  },
  "VTN": {
    "name": "Vaitarana",
    "division": "Mumbai",
    "state": "Maharashtra",
    "latitude": 19.2412,
    "longitude": 73.1291
  },
  "KILE": {
    "name": "Kandivali",
    "division": "Mumbai",
    "state": "Maharashtra",
    "latitude": 19.2029,
    "longitude": 72.8494
  },
  "VLP": {
    "name": "Vile Parle",
    "division": "Mumbai",
    "state": "Maharashtra",
    "latitude": 19.1025,
    "longitude": 72.8454
  },
  "BOR": {
    "name": "Boisar",
    "division": "Mumbai",
    "state": "Maharashtra",
    "latitude": 19.7969,
    "longitude": 72.7452
  },
  "MIRA": {
    "name": "Mira Road",
    "division": "Mumbai",
    "state": "Maharashtra",
    "latitude": 19.2835,
    "longitude": 72.8573
  },
  "STC": {
    "name": "Santacruz",
    "division": "Mumbai",
    "state": "Maharashtra",
    "latitude": 19.0817,
    "longitude": 72.8414
  },
  "JOS": {
    "name": "Jogeshwari",
    "division": "Mumbai",
    "state": "Maharashtra",
    "latitude": 19.1405,
    "longitude": 72.8422
  },
  "PLG": {
    "name": "Palghar",
    "division": "Mumbai",
    "state": "Maharashtra",
    "latitude": 19.6971,
    "longitude": 72.7637
  },
  "DIC": {
    "name": "Dahisar",
    "division": "Mumbai",
    "state": "Maharashtra",
    "latitude": 19.2501,
    "longitude": 72.8593
  },
  "MM": {
    "name": "Mahim",
    "division": "Mumbai",
    "state": "Maharashtra",
    "latitude": 19.0384,
    "longitude": 72.842
  },
  "KHAR": {
    "name": "Khar Road",
    "division": "Mumbai",
    "state": "Maharashtra",
    "latitude": 19.0682,
    "longitude": 72.84
  },
  "GTR": {
    "name": "Grant Road",
    "division": "Mumbai",
    "state": "Maharashtra",
    "latitude": 18.9564,
    "longitude": 72.8154
  },
  "DRD": {
    "name": "Dahanu Road",
    "division": "Mumbai",
    "state": "Maharashtra",
    "latitude": 19.9578,
    "longitude": 72.7457
  },
  "EPR": {
    "name": "Elphinstone Road",
    "division": "Mumbai",
    "state": "Maharashtra",
    "latitude": 19.0085,
    "longitude": 72.8326
  },
  "CYR": {
    "name": "Charni Road",
    "division": "Mumbai",
    "state": "Maharashtra",
    "latitude": 18.963,
    "longitude": 72.823
  },
  "JBP": {
    "name": "Jabalpur",
    "division": "Jabalpur",
    "state": "Madhya Pradesh",
    "latitude": 23.167,
    "longitude": 79.9501
  },
  "STA": {
    "name": "Satna",
    "division": "Jabalpur",
    "state": "Madhya Pradesh",
    "latitude": 24.9867,
    "longitude": 80.7751
  },
  "KTE": {
    "name": "Katni",
    "division": "Jabalpur",
    "state": "Madhya Pradesh",
    "latitude": 23.8552,
    "longitude": 80.3947
  },
  "REWA": {
    "name": "Rewa",
    "division": "Jabalpur",
    "state": "Madhya Pradesh",
    "latitude": 24.5728,
    "longitude": 81.2508
  },
  "SWM": {
    "name": "Sawaimadhopur",
    "division": "Kota",
    "state": "Rajasthan",
    "latitude": 25.9833,
    "longitude": 76.3667
  },
  "SGO": {
    "name": "Saugor",
    "division": "Jabalpur",
    "state": "Madhya Pradesh",
    "latitude": 23.8388,
    "longitude": 78.7387
  },
  "BINA": {
    "name": "Bina",
    "division": "Bhopal",
    "state": "Madhya Pradesh",
    "latitude": 24.2122,
    "longitude": 78.1828
  },
  "BTE": {
    "name": "Bharatpur",
    "division": "Kota",
    "state": "Rajasthan",
    "latitude": 27.2169,
    "longitude": 77.4895
  },
  "MYR": {
    "name": "Maihar",
    "division": "Jabalpur",
    "state": "Madhya Pradesh",
    "latitude": 24.2694,
    "longitude": 80.7567
  },
  "DMO": {
    "name": "Damoh",
    "division": "Jabalpur",
    "state": "Madhya Pradesh",
    "latitude": 23.8366,
    "longitude": 79.4322
  },
  "GUNA": {
    "name": "Guna",
    "division": "Bhopal",
    "state": "Madhya Pradesh",
    "latitude": 24.6469,
    "longitude": 77.3113
  },
  "PPI": {
    "name": "Pipariya",
    "division": "Jabalpur",
    "state": "Madhya Pradesh",
    "latitude": 22.7629,
    "longitude": 78.3525
  },
  "GGC": {
    "name": "Gangapur City",
    "division": "Kota",
    "state": "Rajasthan",
    "latitude": 26.4725,
    "longitude": 76.7174
  },
  "BHS": {
    "name": "Vidisha",
    "division": "Bhopal",
    "state": "Madhya Pradesh",
    "latitude": 23.53,
    "longitude": 77.82
  },
  "HBD": {
    "name": "Hoshangabad",
    "division": "Bhopal",
    "state": "Madhya Pradesh",
    "latitude": 22.7519,
    "longitude": 77.7303
  },
  "NU": {
    "name": "Narshinghpur",
    "division": "Jabalpur",
    "state": "Madhya Pradesh",
    "latitude": 23.0117,
    "longitude": 79.1504
  },
  "HAN": {
    "name": "Hindaun City",
    "division": "Kota",
    "state": "Rajasthan",
    "latitude": 26.7311,
    "longitude": 77.0338
  },
  "BAQ": {
    "name": "Ganjbasoda",
    "division": "Bhopal",
    "state": "Madhya Pradesh",
    "latitude": 23.8519,
    "longitude": 77.9271
  },
  "DKNT": {
    "name": "Dakaniya Talav",
    "division": "Kota",
    "state": "Rajasthan",
    "latitude": 25.1443,
    "longitude": 75.8657
  },
  "PGMD": {
    "name": "Pragati Maidan",
    "division": "Delhi",
    "state": "Delhi",
    "latitude": 28.6168,
    "longitude": 77.2434
  },
  "DBSI": {
    "name": "Daya Basti",
    "division": "Delhi",
    "state": "Delhi",
    "latitude": 28.65,
    "longitude": 77.2
  },
  "KRTN": {
    "name": "Kirti Nagar",
    "division": "Delhi",
    "state": "Delhi",
    "latitude": 28.6551,
    "longitude": 77.1515
  },
  "NRVR": {
    "name": "Naraina Vihar",
    "division": "Delhi",
    "state": "Delhi",
    "latitude": 28.6321,
    "longitude": 77.1389
  },
  "DLPI": {
    "name": "Delhi Inderpuri",
    "division": "Delhi",
    "state": "Delhi",
    "latitude": 28.63,
    "longitude": 77.1451
  },
  "BRSQ": {
    "name": "Brar Square",
    "division": "Delhi",
    "state": "Delhi",
    "latitude": 28.65,
    "longitude": 77.2
  },
  "SDPR": {
    "name": "Sardar Patel Marg",
    "division": "Delhi",
    "state": "Delhi",
    "latitude": 28.6,
    "longitude": 77.2
  },
  "SOJ": {
    "name": "Sarojini Nagar",
    "division": "Delhi",
    "state": "Delhi",
    "latitude": 28.5728,
    "longitude": 77.191
  },
  "LDCY": {
    "name": "Lodhi Colony",
    "division": "Delhi",
    "state": "Delhi",
    "latitude": 28.5825,
    "longitude": 77.2236
  },
  "SWNR": {
    "name": "Sewa Nagar",
    "division": "Delhi",
    "state": "Delhi",
    "latitude": 28.5784,
    "longitude": 77.2252
  },
  "PZA": {
    "name": "Palavantangal",
    "division": "Chennai Central",
    "state": "TamilNadu",
    "latitude": 12.9895,
    "longitude": 80.1863
  },
  "AVD": {
    "name": "Avadi",
    "division": "Chennai Central",
    "state": "TamilNadu",
    "latitude": 13.1147,
    "longitude": 80.1098
  },
  "BZN": {
    "name": "Bagnan",
    "division": "Kharagpur",
    "state": "West Bengal",
    "latitude": 22.4671,
    "longitude": 87.9702
  },
  "PKU": {
    "name": "Panskura",
    "division": "Kharagpur",
    "state": "West Bengal",
    "latitude": 22.3956,
    "longitude": 87.7419
  },
  "MCA": {
    "name": "Mecheda",
    "division": "Kharagpur",
    "state": "West Bengal",
    "latitude": 22.4141,
    "longitude": 87.86
  },
  "VLCY": {
    "name": "Velachery",
    "division": "Chennai",
    "state": "Tamilnadu",
    "latitude": 12.9758,
    "longitude": 80.2205
  },
  "PRGD": {
    "name": "Perungudi",
    "division": "Chennai",
    "state": "Tamilnadu",
    "latitude": 12.9654,
    "longitude": 80.2461
  },
  "TRMN": {
    "name": "Taramani",
    "division": "Chennai",
    "state": "Tamilnadu",
    "latitude": 12.986,
    "longitude": 80.24
  },
  "TYMR": {
    "name": "Thiruvanmiyur",
    "division": "Chennai",
    "state": "Tamilnadu",
    "latitude": 12.9827,
    "longitude": 80.2634
  },
  "INDR": {
    "name": "Indira Nagar",
    "division": "Chennai",
    "state": "Tamilnadu",
    "latitude": 12.9951,
    "longitude": 80.2496
  },
  "KTBR": {
    "name": "Kasturba Nagar",
    "division": "Chennai",
    "state": "Tamilnadu",
    "latitude": 12.9886,
    "longitude": 80.1304
  },
  "KTPM": {
    "name": "Kotturpuram",
    "division": "Chennai",
    "state": "Tamilnadu",
    "latitude": 13.018,
    "longitude": 80.2411
  },
  "GWGR": {
    "name": "Greenways Road",
    "division": "Chennai",
    "state": "Tamilnadu",
    "latitude": 13.0219,
    "longitude": 80.2529
  },
  "MNDY": {
    "name": "Mandaveli",
    "division": "Chennai",
    "state": "Tamilnadu",
    "latitude": 13.0284,
    "longitude": 80.2621
  },
  "MTMY": {
    "name": "Thirumayilai",
    "division": "Chennai",
    "state": "Tamilnadu",
    "latitude": 13.0368,
    "longitude": 80.2676
  },
  "MLHS": {
    "name": "Light House",
    "division": "Chennai",
    "state": "Tamilnadu",
    "latitude": 13.0396,
    "longitude": 80.2795
  },
  "MTCN": {
    "name": "Thiruvallikeni",
    "division": "Chennai",
    "state": "Tamilnadu",
    "latitude": 13.0569,
    "longitude": 80.2795
  },
  "MCPK": {
    "name": "Chepauk",
    "division": "Chennai",
    "state": "Tamilnadu",
    "latitude": 13.0643,
    "longitude": 80.2838
  },
  "MCPT": {
    "name": "Chintadripet",
    "division": "Chennai",
    "state": "Tamilnadu",
    "latitude": 13.075,
    "longitude": 80.2698
  },
  "MPKT": {
    "name": "Chennai Park Town",
    "division": "Chennai",
    "state": "Tamilnadu",
    "latitude": 13.0864,
    "longitude": 80.2669
  },
  "GDY": {
    "name": "Guindy",
    "division": "Chennai",
    "state": "Tamilnadu",
    "latitude": 13.0102,
    "longitude": 80.2157
  },
  "SP": {
    "name": "Saidapet",
    "division": "Chennai",
    "state": "Tamilnadu",
    "latitude": 13.0199,
    "longitude": 80.2181
  },
  "MKK": {
    "name": "Kodambakkam",
    "division": "Chennai",
    "state": "Tamilnadu",
    "latitude": 13.0535,
    "longitude": 80.2255
  },
  "NBK": {
    "name": "Nungambakkam",
    "division": "Chennai",
    "state": "Tamilnadu",
    "latitude": 13.0611,
    "longitude": 80.2405
  },
  "MSC": {
    "name": "Chetput",
    "division": "Chennai",
    "state": "Tamilnadu",
    "latitude": 13.0741,
    "longitude": 80.2424
  },
  "PEW": {
    "name": "Perambur Loco Works",
    "division": "Chennai",
    "state": "Tamilnadu",
    "latitude": 13.1083,
    "longitude": 80.2257
  },
  "PCW": {
    "name": "Perambur Carriage Works",
    "division": "Chennai",
    "state": "Tamilnadu",
    "latitude": 13.1117,
    "longitude": 80.2412
  },
  "VJM": {
    "name": "Vyasarpadi Jeeva",
    "division": "Chennai",
    "state": "Tamilnadu",
    "latitude": 13.1268,
    "longitude": 80.2814
  },
  "TNP": {
    "name": "Tondiarpet",
    "division": "Chennai",
    "state": "Tamilnadu",
    "latitude": 13.1278,
    "longitude": 80.2896
  },
  "KOK": {
    "name": "Korukkupet",
    "division": "Chennai",
    "state": "Tamilnadu",
    "latitude": 13.1186,
    "longitude": 80.278
  },
  "MPK": {
    "name": "Chennai Park",
    "division": "Chennai",
    "state": "Tamilnadu",
    "latitude": 13.0827,
    "longitude": 80.2707
  },
  "MSF": {
    "name": "Chennai Fort",
    "division": "Chennai",
    "state": "Tamilnadu",
    "latitude": 13.0674,
    "longitude": 80.2376
  },
  "WST": {
    "name": "Washermanpet",
    "division": "Chennai",
    "state": "Tamilnadu",
    "latitude": 13.1343,
    "longitude": 80.2791
  },
  "BBQ": {
    "name": "Basin Bridge",
    "division": "Chennai",
    "state": "Tamilnadu",
    "latitude": 13.1065,
    "longitude": 80.2753
  },
  "RPM": {
    "name": "Royapuram",
    "division": "Chennai",
    "state": "Tamilnadu",
    "latitude": 13.104,
    "longitude": 80.2937
  },
  "MMCC": {
    "name": "Moore Market Complex",
    "division": "Chennai",
    "state": "Tamilnadu",
    "latitude": 13.0832,
    "longitude": 80.2742
  },
  "MSB": {
    "name": "Chennai Beach",
    "division": "Chennai",
    "state": "Tamilnadu",
    "latitude": 13.0922,
    "longitude": 80.2919
  },
  "SSP": {
    "name": "Santoshpur",
    "division": "Sealdah",
    "state": "West Bengal",
    "latitude": 22.487,
    "longitude": 88.3871
  },
  "TLG": {
    "name": "Tollyganj",
    "division": "Sealdah",
    "state": "West Bengal",
    "latitude": 22.4953,
    "longitude": 88.3506
  },
  "BGJT": {
    "name": "Baghajatin",
    "division": "Sealdah",
    "state": "West Bengal",
    "latitude": 22.4851,
    "longitude": 88.3785
  },
  "BRJ": {
    "name": "Brace Bridge",
    "division": "Sealdah",
    "state": "West Bengal",
    "latitude": 22.5256,
    "longitude": 88.3002
  },
  "DDC": {
    "name": "Dum Dum Cant",
    "division": "Sealdah",
    "state": "West Bengal",
    "latitude": 22.62,
    "longitude": 88.42
  },
  "BLN": {
    "name": "Ballygunge",
    "division": "Sealdah",
    "state": "West Bengal",
    "latitude": 22.5333,
    "longitude": 88.3667
  },
  "DHK": {
    "name": "Dhakuria",
    "division": "Sealdah",
    "state": "West Bengal",
    "latitude": 22.5074,
    "longitude": 88.3701
  },
  "EDG": {
    "name": "Eden Garden",
    "division": "Sealdah",
    "state": "West Bengal",
    "latitude": 22.5587,
    "longitude": 88.3393
  },
  "BEQ": {
    "name": "Belur",
    "division": "Howrah",
    "state": "West Bengal",
    "latitude": 22.6357,
    "longitude": 88.3398
  },
  "TPKR": {
    "name": "Tikiapara",
    "division": "Kharagpur",
    "state": "West Bengal",
    "latitude": 24.3989,
    "longitude": 88.1827
  },
  "LLH": {
    "name": "Liluah",
    "division": "Howrah",
    "state": "West Bengal",
    "latitude": 22.6171,
    "longitude": 88.3191
  },
  "BBT": {
    "name": "Birati",
    "division": "Sealdah",
    "state": "West Bengal",
    "latitude": 22.6592,
    "longitude": 88.4384
  },
  "MJT": {
    "name": "Majerhat",
    "division": "Sealdah",
    "state": "West Bengal",
    "latitude": 22.5193,
    "longitude": 88.3222
  },
  "KIRP": {
    "name": "Khidirpur",
    "division": "Sealdah",
    "state": "West Bengal",
    "latitude": 22.5421,
    "longitude": 88.319
  },
  "PPGT": {
    "name": "Princep Ghat",
    "division": "Sealdah",
    "state": "West Bengal",
    "latitude": 22.5568,
    "longitude": 88.3316
  },
  "AGP": {
    "name": "Agarpara",
    "division": "Sealdah",
    "state": "West Bengal",
    "latitude": 22.6837,
    "longitude": 88.3846
  },
  "SRC": {
    "name": "Santragachi Junction",
    "division": "Kharagpur",
    "state": "West Bengal",
    "latitude": 22.5802,
    "longitude": 88.2696
  },
  "VVH": {
    "name": "Vidyavihar",
    "division": "Mumbai VT",
    "state": "Maharashtra",
    "latitude": 28.387,
    "longitude": 75.5772
  },
  "TKNG": {
    "name": "Tilak Nagar",
    "division": "Mumbai VT",
    "state": "Maharashtra",
    "latitude": 19.0598,
    "longitude": 72.9067
  },
  "SVE": {
    "name": "Sewri",
    "division": "Mumbai VT",
    "state": "Maharashtra",
    "latitude": 19.0185,
    "longitude": 72.9036
  },
  "SNRD": {
    "name": "Sandhurst Road",
    "division": "Mumbai VT",
    "state": "Maharashtra",
    "latitude": 18.9609,
    "longitude": 72.8394
  },
  "RRD": {
    "name": "Reay Road",
    "division": "Mumbai VT",
    "state": "Maharashtra",
    "latitude": 18.9536,
    "longitude": 72.8275
  },
  "MRU": {
    "name": "Matunga Road",
    "division": "Mumbai Central",
    "state": "Maharashtra",
    "latitude": 19.0333,
    "longitude": 72.8333
  },
  "MTN": {
    "name": "Matunga",
    "division": "Mumbai VT",
    "state": "Maharashtra",
    "latitude": 19.0287,
    "longitude": 72.8442
  },
  "MEL": {
    "name": "Marine Lines",
    "division": "Mumbai Central",
    "state": "Maharashtra",
    "latitude": 18.9374,
    "longitude": 72.8347
  },
  "MSD": {
    "name": "Bombay Masjid",
    "division": "Mumbai VT",
    "state": "Maharashtra",
    "latitude": 18.9506,
    "longitude": 72.8382
  },
  "MX": {
    "name": "Mahalaxmi",
    "division": "Mumbai Central",
    "state": "Maharashtra",
    "latitude": 18.9774,
    "longitude": 72.8065
  },
  "DKRD": {
    "name": "Dockyard Road",
    "division": "Mumbai VT",
    "state": "Maharashtra",
    "latitude": 18.9882,
    "longitude": 72.8548
  },
  "CRD": {
    "name": "Currey Road",
    "division": "Mumbai VT",
    "state": "Maharashtra",
    "latitude": 18.9936,
    "longitude": 72.8329
  },
  "CTGN": {
    "name": "Cotton Green",
    "division": "Mumbai VT",
    "state": "Maharashtra",
    "latitude": 18.9862,
    "longitude": 72.8441
  },
  "CHF": {
    "name": "Chunabhatti",
    "division": "Mumbai VT",
    "state": "Maharashtra",
    "latitude": 19.0517,
    "longitude": 72.8691
  },
  "CHG": {
    "name": "Chinchpokli",
    "division": "Mumbai VT",
    "state": "Maharashtra",
    "latitude": 18.9833,
    "longitude": 72.8333
  },
  "BAP": {
    "name": "CBD Belapur",
    "division": "Mumbai VT",
    "state": "Maharashtra",
    "latitude": 19.0237,
    "longitude": 73.041
  },
  "VVB": {
    "name": "Viveka Vihar",
    "division": "DLI",
    "state": "Delhi",
    "latitude": 28.4388,
    "longitude": 77.0465
  },
  "TKJ": {
    "name": "Tilak Bridge",
    "division": "DLI",
    "state": "Delhi",
    "latitude": 28.628,
    "longitude": 77.2374
  },
  "SZM": {
    "name": "Subji Mandi",
    "division": "DLI",
    "state": "Delhi",
    "latitude": 28.6679,
    "longitude": 77.2007
  },
  "CSB": {
    "name": "Shivaji Bridge",
    "division": "DLI",
    "state": "Delhi",
    "latitude": 28.6262,
    "longitude": 77.2181
  },
  "OKA": {
    "name": "Okhla",
    "division": "DLI",
    "state": "Delhi",
    "latitude": 28.5254,
    "longitude": 77.2801
  },
  "MGP": {
    "name": "Mongolpuri",
    "division": "DLI",
    "state": "Delhi",
    "latitude": 28.6925,
    "longitude": 77.0884
  },
  "DSJ": {
    "name": "Delhi Sadarjung",
    "division": "DLI",
    "state": "Delhi",
    "latitude": 28.5633,
    "longitude": 77.1912
  },
  "DKZ": {
    "name": "Kishanganj",
    "division": "DLI",
    "state": "Delhi",
    "latitude": 26.1022,
    "longitude": 87.9553
  },
  "BHD": {
    "name": "Badli",
    "division": "DLI",
    "state": "Delhi",
    "latitude": 28.7403,
    "longitude": 77.1514
  },
  "GTNR": {
    "name": "Gomati Nagar",
    "division": "Lucknow",
    "state": "Uttar Pradesh",
    "latitude": 26.8624,
    "longitude": 81.0203
  },
  "RANI": {
    "name": "Rani",
    "division": "Ajmer",
    "state": "Rajasthan",
    "latitude": 26.4499,
    "longitude": 74.6399
  },
  "MUT": {
    "name": "Meerut Cantt.",
    "division": "Delhi",
    "state": "Uttar Pradesh",
    "latitude": 28.9938,
    "longitude": 77.6822
  },
  "JTTN": {
    "name": "Jorhat Town",
    "division": "Tinsukia",
    "state": "Assam",
    "latitude": 26.75,
    "longitude": 94.2167
  },
  "JUD": {
    "name": "Jagadhri",
    "division": "Ambala",
    "state": "Haryana",
    "latitude": 30.1689,
    "longitude": 77.3019
  },
  "GMO": {
    "name": "Gomoh Jn.",
    "division": "Dhanbad",
    "state": "Jharkhand",
    "latitude": 23.7957,
    "longitude": 86.4304
  },
  "COB": {
    "name": "Coochbehar",
    "division": "Alipudawar",
    "state": "West Bengal",
    "latitude": 26.3239,
    "longitude": 89.4511
  },
  "BNGN": {
    "name": "Bongaigaon",
    "division": "Rangia",
    "state": "Assam",
    "latitude": 26.501,
    "longitude": 90.5352
  },
  "BRD": {
    "name": "Bhandara Road",
    "division": "Nagpur",
    "state": "Maharashtra",
    "latitude": 21.1667,
    "longitude": 79.65
  },
  "UHL": {
    "name": "Una",
    "division": "Ambala",
    "state": "Himachal Pradesh",
    "latitude": 31.4649,
    "longitude": 76.2691
  },
  "KPLH": {
    "name": "Kottipali",
    "division": "Vijayawada",
    "state": "Andhra Pradesh",
    "latitude": 16.6996,
    "longitude": 82.0421
  },
  "ANSB": {
    "name": "Anandpur Sahib",
    "division": "Ambala",
    "state": "Punjab",
    "latitude": 31.2393,
    "longitude": 76.5025
  },
  "AO": {
    "name": "Aonla",
    "division": "Moradabad",
    "state": "Uttar Pradesh",
    "latitude": 28.8411,
    "longitude": 78.7953
  },
  "BRK": {
    "name": "Bahraich",
    "division": "Lucknow",
    "state": "Uttar Pradesh",
    "latitude": 27.5708,
    "longitude": 81.598
  },
  "BTC": {
    "name": "Balaghat",
    "division": "Nagpur",
    "state": "Madhya Pradesh",
    "latitude": 21.8129,
    "longitude": 80.1838
  },
  "JDB": {
    "name": "Jagdalpur",
    "division": "Waltair",
    "state": "Chhattisgarh",
    "latitude": 19.07,
    "longitude": 82.03
  },
  "PNF": {
    "name": "Pangaon",
    "division": "Secundrabad",
    "state": "Maharashtra",
    "latitude": 18.5896,
    "longitude": 76.5965
  },
  "BJO": {
    "name": "Bijnor",
    "division": "Moradabad",
    "state": "Uttar Pradesh",
    "latitude": 29.3724,
    "longitude": 78.1358
  },
  "BSC": {
    "name": "Bulandshaher",
    "division": "Moradabad",
    "state": "Uttar Pradesh",
    "latitude": 28.4069,
    "longitude": 77.8498
  },
  "CUR": {
    "name": "Churu",
    "division": "Bikaner",
    "state": "Rajasthan",
    "latitude": 28.2923,
    "longitude": 74.9666
  },
  "DHI": {
    "name": "Dhule",
    "division": "Bhusawal",
    "state": "Maharashtra",
    "latitude": 20.98,
    "longitude": 74.78
  },
  "FTS": {
    "name": "Fathepur Sikri",
    "division": "Agra Cantt.",
    "state": "Uttar Pradesh",
    "latitude": 27.095,
    "longitude": 77.6688
  },
  "KTW": {
    "name": "Kotdwara",
    "division": "Moradabad",
    "state": "Uttarakhand",
    "latitude": 29.7461,
    "longitude": 78.5222
  },
  "HRS": {
    "name": "Hathras",
    "division": "Allahabad",
    "state": "Uttar Pradesh",
    "latitude": 27.6,
    "longitude": 78.05
  },
  "JJN": {
    "name": "Jhunjhunu",
    "division": "Jaipur",
    "state": "Rajasthan",
    "latitude": 28.1289,
    "longitude": 75.3995
  },
  "KGRA": {
    "name": "Kangra",
    "division": "Firozpur",
    "state": "Himachal Pradesh",
    "latitude": 32.0998,
    "longitude": 76.2691
  },
  "SRO": {
    "name": "Sirathu",
    "division": "Allahabad",
    "state": "Uttar Pradesh",
    "latitude": 25.6461,
    "longitude": 81.3157
  },
  "JONA": {
    "name": "Johna",
    "division": "Ranchi",
    "state": "Jharkhand",
    "latitude": 23.35,
    "longitude": 85.33
  },
  "LMP": {
    "name": "Lakhimpur",
    "division": "Rangiya",
    "state": "Assam",
    "latitude": 26.568,
    "longitude": 91.9759
  },
  "LLJ": {
    "name": "Lalganj",
    "division": "Lucknow",
    "state": "Uttar Pradesh",
    "latitude": 25.0167,
    "longitude": 82.3591
  },
  "MGZ": {
    "name": "Maharjganj",
    "division": "Bihar",
    "state": "Bihar",
    "latitude": 26.1112,
    "longitude": 84.5039
  },
  "JDNX": {
    "name": "Joginder Nagar",
    "division": "Firozpur",
    "state": "Himachal Pradesh",
    "latitude": 31.9912,
    "longitude": 76.7899
  },
  "MSTH": {
    "name": "Mibrik Tirath",
    "division": "Moradabad",
    "state": "Uttar Pradesh",
    "latitude": 28.8411,
    "longitude": 78.7953
  },
  "MLJ": {
    "name": "Mohanlal Ganj",
    "division": "Lucknow",
    "state": "Uttar Pradesh",
    "latitude": 26.6871,
    "longitude": 80.9842
  },
  "NDB": {
    "name": "Nandurbar",
    "division": "Mumbai",
    "state": "Maharashtra",
    "latitude": 21.37,
    "longitude": 74.2
  },
  "NRT": {
    "name": "Narasaraopet",
    "division": "Guntur",
    "state": "Andhra Pradesh",
    "latitude": 16.2349,
    "longitude": 80.0493
  },
  "NWD": {
    "name": "Nawada",
    "division": "Danapur",
    "state": "Bihar",
    "latitude": 24.8799,
    "longitude": 85.5299
  },
  "PTN": {
    "name": "Patan",
    "division": "Ahmedabad",
    "state": "Gujarat",
    "latitude": 23.8507,
    "longitude": 72.1296
  },
  "PBR": {
    "name": "Porbandar",
    "division": "Bhavnagar",
    "state": "Gujarat",
    "latitude": 21.6422,
    "longitude": 69.6093
  },
  "RBGJ": {
    "name": "Robertshabj",
    "division": "Allahabad",
    "state": "Uttar Pradesh",
    "latitude": 25.4448,
    "longitude": 81.8432
  },
  "SML": {
    "name": "Shimla",
    "division": "Ambala",
    "state": "Himachal Pradesh",
    "latitude": 31.1044,
    "longitude": 77.1666
  },
  "SIKR": {
    "name": "Sikar",
    "division": "Jaipur",
    "state": "Rajasthan",
    "latitude": 27.6154,
    "longitude": 75.1259
  },
  "STP": {
    "name": "Sitapur",
    "division": "Lucknow",
    "state": "Uttar Pradesh",
    "latitude": 27.5751,
    "longitude": 80.6638
  },
  "TZTB": {
    "name": "Tezpur",
    "division": "Rangiya",
    "state": "Assam",
    "latitude": 26.6512,
    "longitude": 92.7838
  },
  "PQE": {
    "name": "Pawapuri",
    "division": "Bihar",
    "state": "Bihar",
    "latitude": 25.1599,
    "longitude": 85.5124
  }
}